direccion,precio,gastos_comunes,caracteristicas,num_caracteristicas,fecha_descarga,fecha_publicacion,titulo,url,latitud,longitud,ciudad
"Santo Domingo 3251, Santiago, Chile, Barrio Yungay, Santiago, RM (Metropolitana)",262.0,Gastos comunes aproximados $ 72.000,35 m² totales / 1 dormitorio / 1 baño,3,2023-05-17,Publicado hace 34 días por Blue Home,"Santo Domingo 3251 -  Departamento 1d1b, Santiago",https://www.portalinmobiliario.com/MLC-1372875297-santo-domingo-3251-departamento-1d1b-santiago-_JM#position=1&search_layout=stack&type=item&tracking_id=4c0f8e68-271c-412f-ae94-eb7b79af989c,-33.4364604,-70.643372,Santiago
"San Francisco 228, Bulnes, Santiago, RM (Metropolitana)",265.0,Gastos comunes aproximados $ 45.000,19 m² totales / 1 dormitorio / 1 baño,3,2023-05-17,Publicado hace 7 días por Assetplan Chile,Edificio San Francisco Vista Oriente Piso 15,https://www.portalinmobiliario.com/MLC-1382938865-edificio-san-francisco-vista-oriente-piso-15-_JM#position=2&search_layout=stack&type=item&tracking_id=4c0f8e68-271c-412f-ae94-eb7b79af989c,-33.036842,-70.7112002,Santiago
"Tarapaca 890, Bulnes, Santiago, RM (Metropolitana)",290.0,Gastos comunes aproximados $ 40.000,32.78 m² totales / 1 dormitorio / 1 baño,3,2023-05-17,Publicado hace 7 días por Assetplan Chile,Edificio Tarapaca Vista Poniente Piso 15,https://www.portalinmobiliario.com/MLC-1382947291-edificio-tarapaca-vista-poniente-piso-15-_JM#position=3&search_layout=stack&type=item&tracking_id=4c0f8e68-271c-412f-ae94-eb7b79af989c,-33.4476085,-70.6523128,Santiago
"San Diego 313, Parque Almagro, Santiago, RM (Metropolitana)",280.0,Gastos comunes aproximados $ 35.000,25 m² totales / 1 dormitorio / 1 baño,3,2023-05-17,Publicado hace 35 días por Assetplan Chile,Edificio San Diego Vista Norte Piso 15,https://www.portalinmobiliario.com/MLC-1531365548-edificio-san-diego-vista-norte-piso-15-_JM#position=5&search_layout=stack&type=item&tracking_id=4c0f8e68-271c-412f-ae94-eb7b79af989c,-33.4496313,-70.65108851960295,Santiago
"Santa Elena 1760, Bogotá - Sierra Bella, Santiago, RM (Metropolitana)",290.0,Gastos comunes aproximados $ 40.000,28 m² totales / 1 dormitorio / 1 baño,3,2023-05-17,Publicado hace 7 días por Assetplan Chile,Edificio Santa Elena Vista Nororiente Piso 18,https://www.portalinmobiliario.com/MLC-1382972141-edificio-santa-elena-vista-nororiente-piso-18-_JM#position=8&search_layout=stack&type=item&tracking_id=4c0f8e68-271c-412f-ae94-eb7b79af989c,-33.46697211642239,-70.62792829182791,Santiago
"Sta. Elena 962, Barrio Diez de Julio, Santiago, RM (Metropolitana)",300.0,Gastos comunes aproximados $ 55.000,35.7 m² totales / 1 dormitorio / 1 baño,3,2023-05-17,Publicado hace 7 días por Assetplan Chile,Edificio Sta. Elena (1 Bod.) Vista Norponiente Piso 6,https://www.portalinmobiliario.com/MLC-1649847454-edificio-sta-elena-1-bod-vista-norponiente-piso-6-_JM#position=9&search_layout=stack&type=item&tracking_id=4c0f8e68-271c-412f-ae94-eb7b79af989c,-33.45431590952381,-70.63156262857143,Santiago
"San Francisco 294, Bulnes, Santiago, RM (Metropolitana)",270.0,Gastos comunes aproximados $ 65.000,26 m² totales / 1 dormitorio / 1 baño,3,2023-05-17,Publicado hace 7 días por Assetplan Chile,Edificio San Francisco (1 Bod.) Vista Norte Piso 23,https://www.portalinmobiliario.com/MLC-1649847396-edificio-san-francisco-1-bod-vista-norte-piso-23-_JM#position=10&search_layout=stack&type=item&tracking_id=4c0f8e68-271c-412f-ae94-eb7b79af989c,-33.448165849999995,-70.64645442424822,Santiago
"Raulí 596, Santa Isabel, Santiago, RM (Metropolitana)",300.0,Gastos comunes aproximados $ 50.000,32 m² totales / 1 dormitorio / 1 baño,3,2023-05-17,Publicado hace 7 días por Assetplan Chile,Edificio Raulí Vista Oriente Piso 8,https://www.portalinmobiliario.com/MLC-1382925603-edificio-rauli-vista-oriente-piso-8-_JM#position=11&search_layout=stack&type=item&tracking_id=4c0f8e68-271c-412f-ae94-eb7b79af989c,-33.4485117,-70.636738,Santiago
"San Francisco 526, San Diego, Santiago, RM (Metropolitana)",290.0,Gastos comunes aproximados $ 50.000,31.97 m² totales / 1 dormitorio / 1 baño,3,2023-05-17,Publicado hace 7 días por Assetplan Chile,Edificio San Francisco Vista Sur Piso 3,https://www.portalinmobiliario.com/MLC-1382994489-edificio-san-francisco-vista-sur-piso-3-_JM#position=12&search_layout=stack&type=item&tracking_id=4c0f8e68-271c-412f-ae94-eb7b79af989c,-33.4512115,-70.64638337999625,Santiago
"Amunátegui 620, Centro Histórico de Santiago, Santiago, RM (Metropolitana)",290.0,Gastos comunes aproximados $ 40.000,35.2 m² totales / 1 dormitorio / 1 baño,3,2023-05-17,Publicado hace 7 días por Assetplan Chile,Edificio Amunátegui Vista Norte Piso 19,https://www.portalinmobiliario.com/MLC-1382984617-edificio-amunategui-vista-norte-piso-19-_JM#position=13&search_layout=stack&type=item&tracking_id=4c0f8e68-271c-412f-ae94-eb7b79af989c,-33.436505419999996,-70.65720278,Santiago
"San Francisco 294, Bulnes, Santiago, RM (Metropolitana)",268.0,Gastos comunes aproximados $ 75.000,26 m² totales / 1 dormitorio / 1 baño,3,2023-05-17,Publicado hace 7 días por Assetplan Chile,Edificio San Francisco Vista Oriente Piso 25,https://www.portalinmobiliario.com/MLC-1382984659-edificio-san-francisco-vista-oriente-piso-25-_JM#position=14&search_layout=stack&type=item&tracking_id=4c0f8e68-271c-412f-ae94-eb7b79af989c,-33.448165849999995,-70.64645442424822,Santiago
"Coquimbo 14, Barrio Diez de Julio, Santiago, RM (Metropolitana)",290.0,Gastos comunes aproximados $ 50.000,29 m² totales / 1 dormitorio / 1 baño,3,2023-05-17,Publicado hace 7 días por Assetplan Chile,Edificio Coquimbo Vista Sur Piso 3,https://www.portalinmobiliario.com/MLC-1649835470-edificio-coquimbo-vista-sur-piso-3-_JM#position=15&search_layout=stack&type=item&tracking_id=4c0f8e68-271c-412f-ae94-eb7b79af989c,-33.453338,-70.6307214,Santiago
"Santiago Concha 1148, Bogotá - Sierra Bella, Santiago, RM (Metropolitana)",290.0,Gastos comunes aproximados $ 50.000,27 m² totales / 1 dormitorio / 1 baño,3,2023-05-17,Publicado hace 7 días por Assetplan Chile,Edificio Santiago Concha Vista Poniente Piso 8,https://www.portalinmobiliario.com/MLC-1649858896-edificio-santiago-concha-vista-poniente-piso-8-_JM#position=16&search_layout=stack&type=item&tracking_id=4c0f8e68-271c-412f-ae94-eb7b79af989c,-33.4734297,-70.6364196,Santiago
"Eleuterio Ramirez 1291, Bulnes, Santiago, RM (Metropolitana)",280.0,Gastos comunes aproximados $ 65.000,27 m² totales / 1 dormitorio / 1 baño,3,2023-05-17,Publicado hace 7 días por Assetplan Chile,Edificio Eleuterio Ramirez Vista Oriente Piso 12,https://www.portalinmobiliario.com/MLC-1382925605-edificio-eleuterio-ramirez-vista-oriente-piso-12-_JM#position=17&search_layout=stack&type=item&tracking_id=4c0f8e68-271c-412f-ae94-eb7b79af989c,-33.2836903,-70.8736491,Santiago
"Mario Kreutzberger 1520, Centro Histórico de Santiago, Santiago, RM (Metropolitana)",285.0,Gastos comunes aproximados $ 50.000,25 m² totales / 1 dormitorio / 1 baño,3,2023-05-17,Publicado hace 7 días por Assetplan Chile,Edificio Mario Kreutzberger Vista Sur Piso 3,https://www.portalinmobiliario.com/MLC-1382947293-edificio-mario-kreutzberger-vista-sur-piso-3-_JM#position=18&search_layout=stack&type=item&tracking_id=4c0f8e68-271c-412f-ae94-eb7b79af989c,-33.435916788571426,-70.65894144571429,Santiago
"Nataniel Cox 683, Parque Almagro, Santiago, RM (Metropolitana)",300.0,Gastos comunes aproximados $ 75.000,35.99 m² totales / 1 dormitorio / 1 baño,3,2023-05-17,Publicado hace 7 días por Assetplan Chile,Edificio Nataniel Cox (1 Bod.) Vista Sur Piso 3,https://www.portalinmobiliario.com/MLC-1382994337-edificio-nataniel-cox-1-bod-vista-sur-piso-3-_JM#position=19&search_layout=stack&type=item&tracking_id=4c0f8e68-271c-412f-ae94-eb7b79af989c,-33.45426619090909,-70.65259927272727,Santiago
"Chiloé 1951, Franklin - Biobío, Santiago, RM (Metropolitana)",290.0,Gastos comunes aproximados $ 50.000,35.6 m² totales / 1 dormitorio / 1 baño,3,2023-05-17,Publicado hace 7 días por Assetplan Chile,Edificio Chiloé Vista Norte Piso 5,https://www.portalinmobiliario.com/MLC-1649847654-edificio-chiloe-vista-norte-piso-5-_JM#position=20&search_layout=stack&type=item&tracking_id=4c0f8e68-271c-412f-ae94-eb7b79af989c,-33.47171293287671,-70.64534050821918,Santiago
"Lord Cochrane 136, Bulnes, Santiago, RM (Metropolitana)",300.0,Gastos comunes aproximados $ 40.000,27 m² totales / 1 dormitorio / 1 baño,3,2023-05-17,Publicado hace 7 días por Assetplan Chile,Edificio Lord Cochrane Vista Norte Piso 17,https://www.portalinmobiliario.com/MLC-1649847262-edificio-lord-cochrane-vista-norte-piso-17-_JM#position=23&search_layout=stack&type=item&tracking_id=4c0f8e68-271c-412f-ae94-eb7b79af989c,-33.4618418,-70.6531468,Santiago
"Eyzaguirre 771, San Diego, Santiago, RM (Metropolitana)",275.0,Gastos comunes aproximados $ 50.000,24.91 m² totales / 1 dormitorio / 1 baño,3,2023-05-17,Publicado hace 7 días por Assetplan Chile,Edificio Eyzaguirre Vista Oriente Piso 9,https://www.portalinmobiliario.com/MLC-1649881166-edificio-eyzaguirre-vista-oriente-piso-9-_JM#position=24&search_layout=stack&type=item&tracking_id=4c0f8e68-271c-412f-ae94-eb7b79af989c,-33.4518854,-70.6461449,Santiago
"Matucana 31, Barrio Yungay, Santiago, RM (Metropolitana)",295.0,Gastos comunes aproximados $ 60.000,32.77 m² totales / 1 dormitorio / 1 baño,3,2023-05-17,Publicado hace 7 días por Assetplan Chile,Edificio Matucana Vista Poniente Piso 3,https://www.portalinmobiliario.com/MLC-1649835508-edificio-matucana-vista-poniente-piso-3-_JM#position=25&search_layout=stack&type=item&tracking_id=4c0f8e68-271c-412f-ae94-eb7b79af989c,-33.4415775,-70.6797923,Santiago
"Matucana 31, Barrio Yungay, Santiago, RM (Metropolitana)",295.0,Gastos comunes aproximados $ 60.000,32.77 m² totales / 1 dormitorio / 1 baño,3,2023-05-17,Publicado hace 7 días por Assetplan Chile,Edificio Matucana Vista Poniente Piso 3,https://www.portalinmobiliario.com/MLC-1382947457-edificio-matucana-vista-poniente-piso-3-_JM#position=26&search_layout=stack&type=item&tracking_id=4c0f8e68-271c-412f-ae94-eb7b79af989c,-33.4415775,-70.6797923,Santiago
"Arturo Prat 300, San Diego, Santiago, RM (Metropolitana)",255.0,Gastos comunes aproximados $ 25.000,18 m² totales / 1 dormitorio / 1 baño,3,2023-05-17,Publicado hace 7 días por Assetplan Chile,Edificio Arturo Prat Vista Norte Piso 2,https://www.portalinmobiliario.com/MLC-1382972149-edificio-arturo-prat-vista-norte-piso-2-_JM#position=27&search_layout=stack&type=item&tracking_id=4c0f8e68-271c-412f-ae94-eb7b79af989c,-33.3602535,-70.51595130173533,Santiago
"San Pablo 1433, Centro Histórico de Santiago, Santiago, RM (Metropolitana)",275.0,Gastos comunes aproximados $ 45.000,26.29 m² totales / 1 dormitorio / 1 baño,3,2023-05-17,Publicado hace 7 días por Assetplan Chile,Edificio San Pablo Vista Sur Piso 11,https://www.portalinmobiliario.com/MLC-1649881038-edificio-san-pablo-vista-sur-piso-11-_JM#position=28&search_layout=stack&type=item&tracking_id=4c0f8e68-271c-412f-ae94-eb7b79af989c,-33.43438923125,-70.65783231875001,Santiago
"Máximo Humbser, Centro Histórico de Santiago, Santiago, RM (Metropolitana)",7.0,Gastos comunes aproximados $ 50.000,38 m² totales / 1 dormitorio / 1 baño,3,2023-05-17,Publicado hace 29 días por Houm,Departamento Máximo Humbser Id: 103462,https://www.portalinmobiliario.com/MLC-1557171890-departamento-maximo-humbser-id-103462-_JM#position=29&search_layout=stack&type=item&tracking_id=4c0f8e68-271c-412f-ae94-eb7b79af989c,-33.4395645,-70.6448649,Santiago
"Mario Kreutzberger 1520, Centro Histórico de Santiago, Santiago, RM (Metropolitana)",260.0,Gastos comunes aproximados $ 35.000,25 m² totales / 1 dormitorio / 1 baño,3,2023-05-17,Publicado hace 15 días por Assetplan Chile,Edificio Mario Kreutzberger Vista Norte Piso 19,https://www.portalinmobiliario.com/MLC-1610752648-edificio-mario-kreutzberger-vista-norte-piso-19-_JM#position=30&search_layout=stack&type=item&tracking_id=4c0f8e68-271c-412f-ae94-eb7b79af989c,-33.435916788571426,-70.65894144571429,Santiago
"Santo Domingo 3000 - 3300, Santiago, Chile, Barrio Yungay, Santiago, RM (Metropolitana)",262.0,Gastos comunes aproximados $ 72.000,29 m² totales / 1 dormitorio / 1 baño,3,2023-05-17,Publicado hace 51 días por Blue Home,"Santo Domingo 3251 -  Departamento 1d1b, Santiago",https://www.portalinmobiliario.com/MLC-1366467897-santo-domingo-3251-departamento-1d1b-santiago-_JM#position=31&search_layout=stack&type=item&tracking_id=4c0f8e68-271c-412f-ae94-eb7b79af989c,-33.438315,-70.6769181,Santiago
"Avenida Santa Rosa 1 - 300, Santiago, Chile, Bulnes, Santiago, RM (Metropolitana)",291.0,Gastos comunes aproximados $ 71.000,34 m² totales / 1 dormitorio / 1 baño,3,2023-05-17,Publicado hace 58 días por Blue Home,"Santa Rosa 237 -  Departamento 1d1b, Santiago",https://www.portalinmobiliario.com/MLC-1363604911-santa-rosa-237-departamento-1d1b-santiago-_JM#position=32&search_layout=stack&type=item&tracking_id=4c0f8e68-271c-412f-ae94-eb7b79af989c,-33.4448028,-70.6456905,Santiago
"Santa Elena 2100 - 2400, San Joaquín, Chile, Santiago, RM (Metropolitana)",289.0,Gastos comunes aproximados $ 54.000,25 m² totales / 1 baño,2,2023-05-17,Publicado hace 58 días por Blue Home,"Santa Elena 2120 -  Departamento Studio, Santiago",https://www.portalinmobiliario.com/MLC-1424592880-santa-elena-2120-departamento-studio-santiago-_JM#position=33&search_layout=stack&type=item&tracking_id=4c0f8e68-271c-412f-ae94-eb7b79af989c,-33.2058687,-70.728268,Santiago
"Morandé 900 - 1200, Santiago, Chile, Centro Histórico de Santiago, Santiago, RM (Metropolitana)",274.0,Gastos comunes aproximados $ 82.000,27 m² totales / 1 dormitorio / 1 baño,3,2023-05-17,Publicado hace 47 días por Blue Home,"Morandé 924 -  Departamento Studio, Santiago",https://www.portalinmobiliario.com/MLC-1479544760-morande-924-departamento-studio-santiago-_JM#position=34&search_layout=stack&type=item&tracking_id=4c0f8e68-271c-412f-ae94-eb7b79af989c,-33.4442223,-70.6529658,Santiago
"Santo Domingo 3000 - 3300, Santiago, Chile, Barrio Yungay, Santiago, RM (Metropolitana)",256.0,Gastos comunes aproximados $ 68.000,29 m² totales / 1 dormitorio / 1 baño,3,2023-05-17,Publicado hace 51 días por Blue Home,"Santo Domingo 3251 -  Departamento Studio, Santiago",https://www.portalinmobiliario.com/MLC-1451876852-santo-domingo-3251-departamento-studio-santiago-_JM#position=35&search_layout=stack&type=item&tracking_id=4c0f8e68-271c-412f-ae94-eb7b79af989c,-33.438315,-70.6769181,Santiago
"Sara Del Campo 535, Santiago, Chile, Santa Isabel, Santiago, RM (Metropolitana)",298.0,Gastos comunes aproximados $ 64.000,29 m² totales / 1 dormitorio / 1 baño,3,2023-05-17,Publicado hace 47 días por Blue Home,"Sara Del Campo 535 -  Departamento Studio, Santiago",https://www.portalinmobiliario.com/MLC-1479768964-sara-del-campo-535-departamento-studio-santiago-_JM#position=36&search_layout=stack&type=item&tracking_id=4c0f8e68-271c-412f-ae94-eb7b79af989c,-33.444423900000004,-70.64361905,Santiago
"Chacabuco 900 - 1200, Parque Los Reyes, Santiago, RM (Metropolitana)",255.0,Gastos comunes aproximados $ 60.000,27 m² totales / 1 dormitorio / 1 baño,3,2023-05-17,Publicado hace 3 meses por Assetplan Chile,Edificio Chacabuco Vista Norte Piso 15,https://www.portalinmobiliario.com/MLC-1332869586-edificio-chacabuco-vista-norte-piso-15-_JM#position=37&search_layout=stack&type=item&tracking_id=4c0f8e68-271c-412f-ae94-eb7b79af989c,-33.4343462,-70.6793983,Santiago
"General Mackenna 1555, Santiago, Chile, Centro Histórico de Santiago, Santiago, RM (Metropolitana)",240.0,Gastos comunes aproximados $ 50.000,25 m² totales / 1 dormitorio / 1 baño,3,2023-05-17,Publicado hace 5 días,"Mc Dpto Home Studio, Const Socovesa Metro Santa Ana",https://www.portalinmobiliario.com/MLC-1660944704-mc-dpto-home-studio-const-socovesa-metro-santa-ana-_JM#position=38&search_layout=stack&type=item&tracking_id=4c0f8e68-271c-412f-ae94-eb7b79af989c,-33.432898800000004,-70.65980617361122,Santiago
"Santo Domingo 1391, Santiago, Chile, Centro Histórico de Santiago, Santiago, RM (Metropolitana)",290.0,,30 m² totales / 1 dormitorio / 1 baño,3,2023-05-17,Publicado hace 5 días,Ap Metro Santa Ana - Santo Domingo/amunategui - 1 Dormitorio,https://www.portalinmobiliario.com/MLC-1383812869-ap-metro-santa-ana-santo-domingoamunategui-1-dormitorio-_JM#position=39&search_layout=stack&type=item&tracking_id=4c0f8e68-271c-412f-ae94-eb7b79af989c,-33.436706724489795,-70.65671476734693,Santiago
"San Diego, Bulnes, Santiago, RM (Metropolitana)",292.5,Gastos comunes aproximados $ 45.000,41 m² totales / 1 dormitorio / 1 baño,3,2023-05-17,Publicado hace 6 días por Houm,Departamento San Diego Id: 93656,https://www.portalinmobiliario.com/MLC-1650941866-departamento-san-diego-id-93656-_JM#position=41&search_layout=stack&type=item&tracking_id=4c0f8e68-271c-412f-ae94-eb7b79af989c,-33.4752536,-70.6483591,Santiago
"Avenida Portugal, Santa Isabel, Santiago, RM (Metropolitana)",285.0,Gastos comunes aproximados $ 35.000,30 m² totales / 1 dormitorio / 1 baño,3,2023-05-17,Publicado hace 4 días por Houm,Departamento Avenida Portugal Id: 16311,https://www.portalinmobiliario.com/MLC-1663658930-departamento-avenida-portugal-id-16311-_JM#position=42&search_layout=stack&type=item&tracking_id=4c0f8e68-271c-412f-ae94-eb7b79af989c,-33.4401891,-70.6406643,Santiago
"San Martín, Centro Histórico de Santiago, Santiago, RM (Metropolitana)",265.0,Gastos comunes aproximados $ 55.000,30 m² totales / 1 dormitorio / 1 baño,3,2023-05-17,Publicado hace 5 días por Houm,Departamento San Martín Id: 107470,https://www.portalinmobiliario.com/MLC-1383709545-departamento-san-martin-id-107470-_JM#position=43&search_layout=stack&type=item&tracking_id=4c0f8e68-271c-412f-ae94-eb7b79af989c,-33.4435178,-70.6575638,Santiago
"Lord Cochrane, Parque O'Higgins, Santiago, RM (Metropolitana)",229.5,Gastos comunes aproximados $ 40.000,25 m² totales / 1 dormitorio / 1 baño,3,2023-05-17,Publicado hace 6 días por Houm,Departamento Lord Cochrane Id: 89403,https://www.portalinmobiliario.com/MLC-1383205941-departamento-lord-cochrane-id-89403-_JM#position=44&search_layout=stack&type=item&tracking_id=4c0f8e68-271c-412f-ae94-eb7b79af989c,-33.4618418,-70.6531468,Santiago
"Lord Cochrane, Parque O'Higgins, Santiago, RM (Metropolitana)",255.0,Gastos comunes aproximados $ 50.000,30 m² totales / 1 dormitorio / 1 baño,3,2023-05-17,Publicado hace 5 días por Houm,Departamento Lord Cochrane Id: 89319,https://www.portalinmobiliario.com/MLC-1383629987-departamento-lord-cochrane-id-89319-_JM#position=45&search_layout=stack&type=item&tracking_id=4c0f8e68-271c-412f-ae94-eb7b79af989c,-33.4618418,-70.6531468,Santiago
"San Isidro 635, Santiago, Chile, Barrio Diez de Julio, Santiago, RM (Metropolitana)",280.0,Gastos comunes aproximados $ 45.000,30 m² totales / 1 dormitorio / 1 baño,3,2023-05-17,Publicado hace 5 días,Mc- Impecable San Isidro Con Eyzaguirre,https://www.portalinmobiliario.com/MLC-1659546482-mc-impecable-san-isidro-con-eyzaguirre-_JM#position=46&search_layout=stack&type=item&tracking_id=4c0f8e68-271c-412f-ae94-eb7b79af989c,-33.452060044897955,-70.64264358367348,Santiago
"Avenida Mapocho, Parque Los Reyes, Santiago, RM (Metropolitana)",270.0,Gastos comunes aproximados $ 50.000,32 m² totales / 1 dormitorio / 1 baño,3,2023-05-17,Publicado hace 6 días por Houm,Departamento Avenida Mapocho Id: 107495,https://www.portalinmobiliario.com/MLC-1653545910-departamento-avenida-mapocho-id-107495-_JM#position=47&search_layout=stack&type=item&tracking_id=4c0f8e68-271c-412f-ae94-eb7b79af989c,-33.4325865,-70.6755792,Santiago
"San Diego, Parque O'Higgins, Santiago, RM (Metropolitana)",290.0,Gastos comunes aproximados $ 60.000,37 m² totales / 2 dormitorios / 1 baño,3,2023-05-17,Publicado hace 3 días por Houm,Departamento San Diego Id: 89494,https://www.portalinmobiliario.com/MLC-1384104461-departamento-san-diego-id-89494-_JM#position=48&search_layout=stack&type=item&tracking_id=4c0f8e68-271c-412f-ae94-eb7b79af989c,-33.4752536,-70.6483591,Santiago
"Avenida Mapocho, Parque Los Reyes, Santiago, RM (Metropolitana)",270.0,Gastos comunes aproximados $ 50.000,32 m² totales / 1 dormitorio / 1 baño,3,2023-05-17,Publicado hace 5 días por Houm,Departamento Avenida Mapocho Id: 107490,https://www.portalinmobiliario.com/MLC-1383672039-departamento-avenida-mapocho-id-107490-_JM#position=49&search_layout=stack&type=item&tracking_id=4c0f8e68-271c-412f-ae94-eb7b79af989c,-33.4325865,-70.6755792,Santiago
"Avenida Mapocho, Parque Los Reyes, Santiago, RM (Metropolitana)",270.0,Gastos comunes aproximados $ 50.000,32 m² totales / 1 dormitorio / 1 baño,3,2023-05-17,Publicado hace 6 días por Houm,Departamento Avenida Mapocho Id: 107496,https://www.portalinmobiliario.com/MLC-1650930096-departamento-avenida-mapocho-id-107496-_JM#position=50&search_layout=stack&type=item&tracking_id=4c0f8e68-271c-412f-ae94-eb7b79af989c,-33.4325865,-70.6755792,Santiago
"Avenida Mapocho, Parque Los Reyes, Santiago, RM (Metropolitana)",270.0,Gastos comunes aproximados $ 50.000,32 m² totales / 1 dormitorio / 1 baño,3,2023-05-17,Publicado hace 6 días por Houm,Departamento Avenida Mapocho Id: 107492,https://www.portalinmobiliario.com/MLC-1651213286-departamento-avenida-mapocho-id-107492-_JM#position=1&search_layout=stack&type=item&tracking_id=08b1384e-c04c-4425-b9a2-795e8380eb1d,-33.4325865,-70.6755792,Santiago
"Compañía De Jesus, Centro Histórico de Santiago, Santiago, RM (Metropolitana)",8.0,Gastos comunes aproximados $ 36.000,25 m² totales / 1 dormitorio / 1 baño,3,2023-05-17,Publicado hace 3 días por Houm,Departamento Compañía De Jesus Id: 102969,https://www.portalinmobiliario.com/MLC-1665279196-departamento-compania-de-jesus-id-102969-_JM#position=2&search_layout=stack&type=item&tracking_id=08b1384e-c04c-4425-b9a2-795e8380eb1d,-33.4393266,-70.6596816,Santiago
"Avenida Mapocho, Parque Los Reyes, Santiago, RM (Metropolitana)",270.0,Gastos comunes aproximados $ 50.000,32 m² totales / 1 dormitorio / 1 baño,3,2023-05-17,Publicado hace 6 días por Houm,Departamento Avenida Mapocho Id: 107494,https://www.portalinmobiliario.com/MLC-1653524550-departamento-avenida-mapocho-id-107494-_JM#position=3&search_layout=stack&type=item&tracking_id=08b1384e-c04c-4425-b9a2-795e8380eb1d,-33.4325865,-70.6755792,Santiago
"Avenida Mapocho, Parque Los Reyes, Santiago, RM (Metropolitana)",270.0,Gastos comunes aproximados $ 50.000,32 m² totales / 1 dormitorio / 1 baño,3,2023-05-17,Publicado hace 6 días por Houm,Departamento Avenida Mapocho Id: 107498,https://www.portalinmobiliario.com/MLC-1651213496-departamento-avenida-mapocho-id-107498-_JM#position=4&search_layout=stack&type=item&tracking_id=08b1384e-c04c-4425-b9a2-795e8380eb1d,-33.4325865,-70.6755792,Santiago
"Santa Elena 2120, San Joaquín, Chile, Santiago, RM (Metropolitana)",289.0,Gastos comunes aproximados $ 57.000,25 m² totales / 1 dormitorio / 1 baño,3,2023-05-17,Publicado hace 6 días por Blue Home,"Santa Elena 2120 -  Departamento Studio, Santiago",https://www.portalinmobiliario.com/MLC-1383465063-santa-elena-2120-departamento-studio-santiago-_JM#position=5&search_layout=stack&type=item&tracking_id=08b1384e-c04c-4425-b9a2-795e8380eb1d,-33.2115479,-70.7277606,Santiago
"Mario Kreutzberger, Centro Histórico de Santiago, Santiago, RM (Metropolitana)",246.5,Gastos comunes aproximados $ 35.000,26 m² totales / 1 dormitorio / 1 baño,3,2023-05-17,Publicado hace 6 días por Houm,Departamento Mario Kreutzberger Id: 89470,https://www.portalinmobiliario.com/MLC-1653463512-departamento-mario-kreutzberger-id-89470-_JM#position=8&search_layout=stack&type=item&tracking_id=08b1384e-c04c-4425-b9a2-795e8380eb1d,-33.4358435,-70.6593312,Santiago
"Sargento Aldea 1156, Parque O'Higgins, Santiago, RM (Metropolitana)",259.0,,45 m² totales / 2 dormitorios / 1 baño,3,2023-05-17,Publicado hace 6 días,Sargento Aldea/ San Diego - 2 Dormitorios ,https://www.portalinmobiliario.com/MLC-1655203392-sargento-aldea-san-diego-2-dormitorios-_JM#position=9&search_layout=stack&type=item&tracking_id=08b1384e-c04c-4425-b9a2-795e8380eb1d,-33.468782195918365,-70.64908206530612,Santiago
"Rosas, Centro Histórico de Santiago, Santiago, RM (Metropolitana)",280.0,,32 m² totales / 1 dormitorio / 1 baño,3,2023-05-17,Publicado hace 2 días por Houm,Departamento Rosas Id: 32102,https://www.portalinmobiliario.com/MLC-1670447212-departamento-rosas-id-32102-_JM#position=10&search_layout=stack&type=item&tracking_id=08b1384e-c04c-4425-b9a2-795e8380eb1d,-33.4359242,-70.660568,Santiago
"Manuel Antonio Tocornal 532, Santiago, Chile, Santa Isabel, Santiago, RM (Metropolitana)",260.0,Gastos comunes aproximados $ 80.000,33 m² totales / 1 dormitorio / 1 baño,3,2023-05-17,Publicado hace 2 días,Cómodo Departamento 1308 En Metro Santa Isabel,https://www.portalinmobiliario.com/MLC-1669866412-comodo-departamento-1308-en-metro-santa-isabel-_JM#position=11&search_layout=stack&type=item&tracking_id=08b1384e-c04c-4425-b9a2-795e8380eb1d,-33.449921372000006,-70.640069072,Santiago
"Avenida Santa Rosa 237, Santiago, Chile, Bulnes, Santiago, RM (Metropolitana)",291.0,Gastos comunes aproximados $ 71.000,34 m² totales / 1 dormitorio / 1 baño,3,2023-05-17,Publicado hace 2 días por Blue Home,"Santa Rosa 237 -  Departamento 1d1b, Santiago",https://www.portalinmobiliario.com/MLC-1669621926-santa-rosa-237-departamento-1d1b-santiago-_JM#position=12&search_layout=stack&type=item&tracking_id=08b1384e-c04c-4425-b9a2-795e8380eb1d,-33.4470947,-70.64555429079586,Santiago
"Domeyko 2010, Santiago, Chile, Ejército - Toesca, Santiago, RM (Metropolitana)",300.0,Gastos comunes aproximados $ 60.000,38 m² totales / 1 dormitorio / 1 baño,3,2023-05-17,Publicado hace 5 días,¡¡ Sin Comisión !! Departamento 1d Y 1b En Domeyko.,https://www.portalinmobiliario.com/MLC-1660360184--sin-comision-departamento-1d-y-1b-en-domeyko-_JM#position=13&search_layout=stack&type=item&tracking_id=08b1384e-c04c-4425-b9a2-795e8380eb1d,-33.45618575,-70.662925128614,Santiago
"Chacabuco 1120, Santiago, Chile, Parque Los Reyes, Santiago, RM (Metropolitana)",300.0,Gastos comunes aproximados $ 80.000,45 m² totales / 2 dormitorios / 1 baño,3,2023-05-17,Publicado hace 5 días,¡¡ Sin Comisión !! Departamento 2d Y 1b En Chacabuco.,https://www.portalinmobiliario.com/MLC-1383682871--sin-comision-departamento-2d-y-1b-en-chacabuco-_JM#position=14&search_layout=stack&type=item&tracking_id=08b1384e-c04c-4425-b9a2-795e8380eb1d,-33.0285624,-70.6907886,Santiago
"Santa Isabel 951, Santiago, Chile, San Diego, Santiago, RM (Metropolitana)",295.0,Gastos comunes aproximados $ 70.000,36 m² totales / 1 dormitorio / 1 baño,3,2023-05-17,Publicado hace 5 días,Departamento 1d Y 1b En Santa Isabel. Metro Parque Almagro.,https://www.portalinmobiliario.com/MLC-1659609284-departamento-1d-y-1b-en-santa-isabel-metro-parque-almagro-_JM#position=15&search_layout=stack&type=item&tracking_id=08b1384e-c04c-4425-b9a2-795e8380eb1d,-33.45080965,-70.648608477035,Santiago
"Presidente Balmaceda, Parque Los Reyes, Santiago, RM (Metropolitana)",250.0,Gastos comunes aproximados $ 47.000,20 m² totales / 1 dormitorio / 1 baño,3,2023-05-17,Publicado hace 6 días por Houm,Departamento Presidente Balmaceda Id: 102614,https://www.portalinmobiliario.com/MLC-1383569257-departamento-presidente-balmaceda-id-102614-_JM#position=16&search_layout=stack&type=item&tracking_id=08b1384e-c04c-4425-b9a2-795e8380eb1d,-33.3607227,-70.7430218,Santiago
"Teatinos 251, Santiago, Chile, Centro Histórico de Santiago, Santiago, RM (Metropolitana)",280.0,Gastos comunes aproximados $ 45.000,38 m² totales / 1 dormitorio / 1 baño,3,2023-05-17,Publicado hace 5 días,Departamento 1d Y 1b En Teatinos. Metro Santa Ana,https://www.portalinmobiliario.com/MLC-1660361984-departamento-1d-y-1b-en-teatinos-metro-santa-ana-_JM#position=17&search_layout=stack&type=item&tracking_id=08b1384e-c04c-4425-b9a2-795e8380eb1d,-33.44069472,-70.65489804,Santiago
"Santo Domingo 3251, Santiago, Chile, Barrio Yungay, Santiago, RM (Metropolitana)",256.0,Gastos comunes aproximados $ 68.000,29 m² totales / 1 dormitorio / 1 baño,3,2023-05-17,Publicado hace 2 días por Blue Home,"Santo Domingo 3251 -  Departamento Studio, Santiago",https://www.portalinmobiliario.com/MLC-1669967234-santo-domingo-3251-departamento-studio-santiago-_JM#position=18&search_layout=stack&type=item&tracking_id=08b1384e-c04c-4425-b9a2-795e8380eb1d,-33.4364604,-70.643372,Santiago
"Santo Domingo 3251, Santiago, Chile, Barrio Yungay, Santiago, RM (Metropolitana)",262.0,Gastos comunes aproximados $ 72.000,35 m² totales / 1 dormitorio / 1 baño,3,2023-05-17,Publicado hace 6 días por Blue Home,"Santo Domingo 3251 -  Departamento 1d1b, Santiago",https://www.portalinmobiliario.com/MLC-1383463879-santo-domingo-3251-departamento-1d1b-santiago-_JM#position=19&search_layout=stack&type=item&tracking_id=08b1384e-c04c-4425-b9a2-795e8380eb1d,-33.4364604,-70.643372,Santiago
"Chiloe 1951, Santiago, Chile, Franklin - Biobío, Santiago, RM (Metropolitana)",280.0,Gastos comunes aproximados $ 60.000,32 m² totales / 1 dormitorio / 1 baño,3,2023-05-17,Publicado hace 5 días,Departamento 1d Y 1b En Chiloé.,https://www.portalinmobiliario.com/MLC-1659607182-departamento-1d-y-1b-en-chiloe-_JM#position=20&search_layout=stack&type=item&tracking_id=08b1384e-c04c-4425-b9a2-795e8380eb1d,-33.47171293287671,-70.64534050821918,Santiago
"Zenteno 1482, Santiago, Chile, Parque O'Higgins, Santiago, RM (Metropolitana)",240.0,Gastos comunes aproximados $ 39.000,30 m² totales / 1 dormitorio / 1 baño,3,2023-05-17,Publicado hace 5 días,Mc 1d Con Bodega Metro Rondizonni,https://www.portalinmobiliario.com/MLC-1660362404-mc-1d-con-bodega-metro-rondizonni-_JM#position=21&search_layout=stack&type=item&tracking_id=08b1384e-c04c-4425-b9a2-795e8380eb1d,-33.465767021428576,-70.64977802142857,Santiago
"Santo Domingo 3251, Santiago, Chile, Barrio Yungay, Santiago, RM (Metropolitana)",262.0,Gastos comunes aproximados $ 72.000,35 m² totales / 1 dormitorio / 1 baño,3,2023-05-17,Publicado hace 2 días por Blue Home,"Santo Domingo 3251 -  Departamento 1d1b, Santiago",https://www.portalinmobiliario.com/MLC-1669865246-santo-domingo-3251-departamento-1d1b-santiago-_JM#position=22&search_layout=stack&type=item&tracking_id=08b1384e-c04c-4425-b9a2-795e8380eb1d,-33.4364604,-70.643372,Santiago
"Avenida San Ignacio 633, Santiago, Chile, Parque Almagro, Santiago, RM (Metropolitana)",260.0,Gastos comunes aproximados $ 76.000,30 m² totales / 1 dormitorio / 1 baño,3,2023-05-17,Publicado hace 3 días,Metro Toesca ,https://www.portalinmobiliario.com/MLC-1384114601-metro-toesca-_JM#position=23&search_layout=stack&type=item&tracking_id=08b1384e-c04c-4425-b9a2-795e8380eb1d,-33.3305064,-70.70335,Santiago
"Santiago, Parque O'Higgins, Santiago, RM (Metropolitana)",200.0,Gastos comunes aproximados $ 80.000,34 m² totales / 1 dormitorio / 1 baño,3,2023-05-17,Publicado hace 31 días por Houm,Departamento Santiago Id: 105352,https://www.portalinmobiliario.com/MLC-1373752157-departamento-santiago-id-105352-_JM#position=24&search_layout=stack&type=item&tracking_id=08b1384e-c04c-4425-b9a2-795e8380eb1d,-33.4377756,-70.6504502,Santiago
"General Gana, Franklin - Biobío, Santiago, RM (Metropolitana)",195.0,Gastos comunes aproximados $ 40.000,25 m² totales / 1 dormitorio / 1 baño,3,2023-05-17,Publicado hace 25 días por Houm,Departamento General Gana Id: 101195,https://www.portalinmobiliario.com/MLC-1375654369-departamento-general-gana-id-101195-_JM#position=25&search_layout=stack&type=item&tracking_id=08b1384e-c04c-4425-b9a2-795e8380eb1d,-33.4705954,-70.6439989,Santiago
"Morandé 696, Santiago, Chile, Centro Histórico de Santiago, Santiago, RM (Metropolitana)",294.0,Gastos comunes aproximados $ 60.000,57 m² totales / 2 dormitorios / 2 baños,3,2023-05-17,Publicado hace 4 meses,"2d 2b 30% Dcto En Primer Mes Arriendo, Morande 696",https://www.portalinmobiliario.com/MLC-1580036912-2d-2b-30-dcto-en-primer-mes-arriendo-morande-696-_JM#position=26&search_layout=stack&type=item&tracking_id=08b1384e-c04c-4425-b9a2-795e8380eb1d,-33.4356123,-70.65445070588235,Santiago
"General Gana 1063, Santiago, Chile, Franklin - Biobío, Santiago, RM (Metropolitana)",250.0,,30 m² totales / 1 dormitorio / 1 baño,3,2023-05-17,Publicado hace 50 días,Gasto Común Incluido ,https://www.portalinmobiliario.com/MLC-1598364202-gasto-comun-incluido-_JM#position=27&search_layout=stack&type=item&tracking_id=08b1384e-c04c-4425-b9a2-795e8380eb1d,-33.470911584210526,-70.64782224736842,Santiago
"Morandé 696, Santiago, Chile, Centro Histórico de Santiago, Santiago, RM (Metropolitana)",224.0,Gastos comunes aproximados $ 45.000,35 m² totales / 1 dormitorio / 1 baño,3,2023-05-17,Publicado hace 4 meses,1d 1b 30% Dcto En Primer Mes De Arriendo - Morande 696,https://www.portalinmobiliario.com/MLC-1580011830-1d-1b-30-dcto-en-primer-mes-de-arriendo-morande-696-_JM#position=28&search_layout=stack&type=item&tracking_id=08b1384e-c04c-4425-b9a2-795e8380eb1d,-33.4356123,-70.65445070588235,Santiago
"Mapocho 1522, Santiago, Chile, Centro Histórico de Santiago, Santiago, RM (Metropolitana)",230.0,Gastos comunes aproximados $ 28.000,20 m² totales / 1 dormitorio / 1 baño,3,2023-05-17,Publicado hace 4 meses,Departamento Estudio ,https://www.portalinmobiliario.com/MLC-1534904874-departamento-estudio-_JM#position=29&search_layout=stack&type=item&tracking_id=08b1384e-c04c-4425-b9a2-795e8380eb1d,-33.39098585,-70.59944065546188,Santiago
"Morandé 626, Santiago, Chile, Centro Histórico de Santiago, Santiago, RM (Metropolitana)",260.0,Gastos comunes aproximados $ 55.000,35 m² totales / 1 dormitorio / 1 baño,3,2023-05-17,Publicado hace 7 meses,"1d 1b Morande 626,plaza De Armas, Linea 3",https://www.portalinmobiliario.com/MLC-1376687109-1d-1b-morande-626plaza-de-armas-linea-3-_JM#position=30&search_layout=stack&type=item&tracking_id=08b1384e-c04c-4425-b9a2-795e8380eb1d,-33.4361758,-70.6543667745098,Santiago
"Eyzaguirre, San Diego, Santiago, RM (Metropolitana)",251.25,Gastos comunes aproximados $ 50.000,35 m² totales / 1 dormitorio / 1 baño,3,2023-05-17,Publicado hace 22 días por Houm,Departamento Eyzaguirre Id: 69683,https://www.portalinmobiliario.com/MLC-1377372045-departamento-eyzaguirre-id-69683-_JM#position=32&search_layout=stack&type=item&tracking_id=08b1384e-c04c-4425-b9a2-795e8380eb1d,-33.4518848,-70.6454937,Santiago
"San Martín 600 - 900, Santiago, Chile, Centro Histórico de Santiago, Santiago, RM (Metropolitana)",250.0,Gastos comunes aproximados $ 60.000,30 m² totales / 1 dormitorio / 1 baño,3,2023-05-17,Publicado hace 14 días,Home Estudio Ideal Para Parejas O Persona Sola,https://www.portalinmobiliario.com/MLC-1379713977-home-estudio-ideal-para-parejas-o-persona-sola-_JM#position=33&search_layout=stack&type=item&tracking_id=08b1384e-c04c-4425-b9a2-795e8380eb1d,-33.43682452352941,-70.65861710392157,Santiago
"Carmen, 644, Barrio Diez de Julio, Santiago, RM (Metropolitana)",295.0,Gastos comunes aproximados $ 70.000,40 m² totales / 1 dormitorio / 1 baño,3,2023-05-17,Publicado hace 12 días,Arriendo Depto. En Ubicación Privilegiada,https://www.portalinmobiliario.com/MLC-1626797340-arriendo-depto-en-ubicacion-privilegiada-_JM#position=34&search_layout=stack&type=item&tracking_id=08b1384e-c04c-4425-b9a2-795e8380eb1d,-33.457579,-70.6395354,Santiago
"Presidente Balmaceda, Parque Los Reyes, Santiago, RM (Metropolitana)",230.0,Gastos comunes aproximados $ 50.000,25 m² totales / 1 dormitorio / 1 baño,3,2023-05-17,Publicado hace 14 días por Houm,Departamento Presidente Balmaceda Id: 101261,https://www.portalinmobiliario.com/MLC-1379627141-departamento-presidente-balmaceda-id-101261-_JM#position=35&search_layout=stack&type=item&tracking_id=08b1384e-c04c-4425-b9a2-795e8380eb1d,-33.3607227,-70.7430218,Santiago
"José Miguel Carrera, Ejército - Toesca, Santiago, RM (Metropolitana)",295.0,Gastos comunes aproximados $ 50.000,25 m² totales / 1 dormitorio / 1 baño,3,2023-05-17,Publicado hace 20 días por Houm,Departamento José Miguel Carrera Id: 103414,https://www.portalinmobiliario.com/MLC-1593152086-departamento-jose-miguel-carrera-id-103414-_JM#position=36&search_layout=stack&type=item&tracking_id=08b1384e-c04c-4425-b9a2-795e8380eb1d,-33.4536684,-70.6629154,Santiago
"Huerfanos 1400, Santiago, Chile, Centro Histórico de Santiago, Santiago, RM (Metropolitana)",300.0,Gastos comunes aproximados $ 70.000,32 m² totales / 1 dormitorio / 1 baño,3,2023-05-17,Publicado hace 6 meses,Depto 1d. Semiamoblado! Disp Inmediata!,https://www.portalinmobiliario.com/MLC-1375444147-depto-1d-semiamoblado-disp-inmediata-_JM#position=37&search_layout=stack&type=item&tracking_id=08b1384e-c04c-4425-b9a2-795e8380eb1d,-33.4401115,-70.6556987,Santiago
"Santiago, Parque Los Reyes, Santiago, RM (Metropolitana)",300.0,,33 m² totales / 1 dormitorio / 1 baño,3,2023-05-17,Publicado hace 35 días,Nuevo Depto 1d1b - Santiago - Av. Mapocho 1892,https://www.portalinmobiliario.com/MLC-1531592140-nuevo-depto-1d1b-santiago-av-mapocho-1892-_JM#position=38&search_layout=stack&type=item&tracking_id=08b1384e-c04c-4425-b9a2-795e8380eb1d,-33.4377756,-70.6504502,Santiago
"Presidente Balmaceda 2720, Santiago, Chile, Parque Los Reyes, Santiago, RM (Metropolitana)",280.0,Gastos comunes aproximados $ 80.000,35 m² totales / 1 dormitorio / 1 baño,3,2023-05-17,Publicado hace 34 días,"Depto 1d/1b Frente A Parque De Los Reyes, Comuna Santiago ",https://www.portalinmobiliario.com/MLC-1536629548-depto-1d1b-frente-a-parque-de-los-reyes-comuna-santiago-_JM#position=39&search_layout=stack&type=item&tracking_id=08b1384e-c04c-4425-b9a2-795e8380eb1d,-33.3607227,-70.7430218,Santiago
"Lord Cochrane, Parque O'Higgins, Santiago, RM (Metropolitana)",256.5,Gastos comunes aproximados $ 45.000,26 m² totales / 1 dormitorio / 1 baño,3,2023-05-17,Publicado hace 30 días por Houm,Departamento Lord Cochrane Id: 100532,https://www.portalinmobiliario.com/MLC-1550782924-departamento-lord-cochrane-id-100532-_JM#position=40&search_layout=stack&type=item&tracking_id=08b1384e-c04c-4425-b9a2-795e8380eb1d,-33.4618418,-70.6531468,Santiago
"Calle San Ignacio De Loyola, Parque Almagro, Santiago, RM (Metropolitana)",250.0,Gastos comunes aproximados $ 50.000,30 m² totales / 1 dormitorio / 1 baño,3,2023-05-17,Publicado hace 15 días por Houm,Departamento Calle San Ignacio De Loyola Id: 55346,https://www.portalinmobiliario.com/MLC-1610665896-departamento-calle-san-ignacio-de-loyola-id-55346-_JM#position=41&search_layout=stack&type=item&tracking_id=08b1384e-c04c-4425-b9a2-795e8380eb1d,-33.3640768,-70.7547575,Santiago
"General Gana, Franklin - Biobío, Santiago, RM (Metropolitana)",275.0,Gastos comunes aproximados $ 55.000,28 m² totales / 1 dormitorio / 1 baño,3,2023-05-17,Publicado hace 30 días por Houm,Departamento General Gana Id: 40480,https://www.portalinmobiliario.com/MLC-1548948542-departamento-general-gana-id-40480-_JM#position=42&search_layout=stack&type=item&tracking_id=08b1384e-c04c-4425-b9a2-795e8380eb1d,-33.4705954,-70.6439989,Santiago
"Morandé, Centro Histórico de Santiago, Santiago, RM (Metropolitana)",297.0,Gastos comunes aproximados $ 55.000,36 m² totales / 1 dormitorio / 1 baño,3,2023-05-17,Publicado hace 30 días por Houm,Departamento Morandé Id: 27534,https://www.portalinmobiliario.com/MLC-1547661122-departamento-morande-id-27534-_JM#position=43&search_layout=stack&type=item&tracking_id=08b1384e-c04c-4425-b9a2-795e8380eb1d,-33.4405138,-70.6536014,Santiago
"Morandé 924, Santiago, Chile, Centro Histórico de Santiago, Santiago, RM (Metropolitana)",274.0,Gastos comunes aproximados $ 82.000,27 m² totales / 1 dormitorio / 1 baño,3,2023-05-17,Publicado hace 12 días por Blue Home,"Morandé 924 -  Departamento Studio, Santiago",https://www.portalinmobiliario.com/MLC-1380351861-morande-924-departamento-studio-santiago-_JM#position=44&search_layout=stack&type=item&tracking_id=08b1384e-c04c-4425-b9a2-795e8380eb1d,-33.432907650000004,-70.65482386556661,Santiago
"San Pablo, Centro Histórico de Santiago, Santiago, RM (Metropolitana)",221.25,Gastos comunes aproximados $ 40.000,26 m² totales / 1 dormitorio / 1 baño,3,2023-05-17,Publicado hace 31 días por Houm,Departamento San Pablo Id: 86336,https://www.portalinmobiliario.com/MLC-1547284028-departamento-san-pablo-id-86336-_JM#position=45&search_layout=stack&type=item&tracking_id=08b1384e-c04c-4425-b9a2-795e8380eb1d,-33.4443055,-70.7231765,Santiago
"San Pablo 1433, Centro Histórico de Santiago, Santiago, RM (Metropolitana)",260.0,Gastos comunes aproximados $ 45.000,36 m² totales / 1 dormitorio / 1 baño,3,2023-05-17,Publicado hace 31 días por Houm,Departamento San Pablo 1433 Id: 62806,https://www.portalinmobiliario.com/MLC-1373761877-departamento-san-pablo-1433-id-62806-_JM#position=46&search_layout=stack&type=item&tracking_id=08b1384e-c04c-4425-b9a2-795e8380eb1d,-33.43438923125,-70.65783231875001,Santiago
"San Isidro, Santa Isabel, Santiago, RM (Metropolitana)",290.0,Gastos comunes aproximados $ 60.000,28 m² totales / 1 dormitorio / 1 baño,3,2023-05-17,Publicado hace 10 días por Houm,Departamento San Isidro Id: 102133,https://www.portalinmobiliario.com/MLC-1636131194-departamento-san-isidro-id-102133-_JM#position=47&search_layout=stack&type=item&tracking_id=08b1384e-c04c-4425-b9a2-795e8380eb1d,-33.7025433,-70.9582364,Santiago
"Morandé 924, Santiago, Chile, Centro Histórico de Santiago, Santiago, RM (Metropolitana)",274.0,Gastos comunes aproximados $ 82.000,27 m² totales / 1 dormitorio / 1 baño,3,2023-05-17,Publicado hace 23 días por Blue Home,"Morandé 924 -  Departamento Studio, Santiago",https://www.portalinmobiliario.com/MLC-1576950572-morande-924-departamento-studio-santiago-_JM#position=48&search_layout=stack&type=item&tracking_id=08b1384e-c04c-4425-b9a2-795e8380eb1d,-33.432907650000004,-70.65482386556661,Santiago
"Avenida Mapocho, Parque Los Reyes, Santiago, RM (Metropolitana)",270.0,Gastos comunes aproximados $ 50.000,32 m² totales / 1 dormitorio / 1 baño,3,2023-05-17,Publicado hace 7 días por Houm,Departamento Avenida Mapocho Id: 107491,https://www.portalinmobiliario.com/MLC-1383097843-departamento-avenida-mapocho-id-107491-_JM#position=49&search_layout=stack&type=item&tracking_id=08b1384e-c04c-4425-b9a2-795e8380eb1d,-33.4325865,-70.6755792,Santiago
"San Diego, Parque O'Higgins, Santiago, RM (Metropolitana)",280.0,Gastos comunes aproximados $ 30.000,36 m² totales / 1 dormitorio / 1 baño,3,2023-05-17,Publicado hace 28 días por Houm,Departamento San Diego Id: 99089,https://www.portalinmobiliario.com/MLC-1560899768-departamento-san-diego-id-99089-_JM#position=50&search_layout=stack&type=item&tracking_id=08b1384e-c04c-4425-b9a2-795e8380eb1d,-33.4752536,-70.6483591,Santiago
"Serrano, San Diego, Santiago, RM (Metropolitana)",270.75,Gastos comunes aproximados $ 45.000,25 m² totales / 1 dormitorio / 1 baño,3,2023-05-17,Publicado hace 31 días por Houm,Departamento Serrano Id: 91145,https://www.portalinmobiliario.com/MLC-1547618880-departamento-serrano-id-91145-_JM#position=1&search_layout=stack&type=item&tracking_id=ac256d63-06e5-4dc0-ad21-1d8a6586b999,-33.4545141,-70.6474031,Santiago
"Presidente Balmaceda, Parque Los Reyes, Santiago, RM (Metropolitana)",242.25,Gastos comunes aproximados $ 40.000,25 m² totales / 1 dormitorio / 1 baño,3,2023-05-17,Publicado hace 31 días por Houm,Departamento Presidente Balmaceda Id: 83182,https://www.portalinmobiliario.com/MLC-1547309058-departamento-presidente-balmaceda-id-83182-_JM#position=2&search_layout=stack&type=item&tracking_id=ac256d63-06e5-4dc0-ad21-1d8a6586b999,-33.3607227,-70.7430218,Santiago
"Lord Cochrane, Bulnes, Santiago, RM (Metropolitana)",279.0,Gastos comunes aproximados $ 50.000,30 m² totales / 1 dormitorio / 1 baño,3,2023-05-17,Publicado hace 9 días por Houm,Departamento Lord Cochrane Id: 99476,https://www.portalinmobiliario.com/MLC-1637249168-departamento-lord-cochrane-id-99476-_JM#position=3&search_layout=stack&type=item&tracking_id=ac256d63-06e5-4dc0-ad21-1d8a6586b999,-33.4618418,-70.6531468,Santiago
"San Francisco, San Diego, Santiago, RM (Metropolitana)",300.0,Gastos comunes aproximados $ 30.000,33 m² totales / 1 dormitorio / 1 baño,3,2023-05-17,Publicado hace 15 días por Houm,Departamento San Francisco Id: 19461,https://www.portalinmobiliario.com/MLC-1379441351-departamento-san-francisco-id-19461-_JM#position=4&search_layout=stack&type=item&tracking_id=ac256d63-06e5-4dc0-ad21-1d8a6586b999,-33.036842,-70.7112002,Santiago
"Carmen, Bogotá - Sierra Bella, Santiago, RM (Metropolitana)",297.0,Gastos comunes aproximados $ 60.000,35 m² totales / 1 dormitorio / 1 baño,3,2023-05-17,Publicado hace 18 días por Houm,Departamento Carmen Id: 86786,https://www.portalinmobiliario.com/MLC-1601070200-departamento-carmen-id-86786-_JM#position=5&search_layout=stack&type=item&tracking_id=ac256d63-06e5-4dc0-ad21-1d8a6586b999,-33.457579,-70.6395354,Santiago
"Máximo Humbser, Centro Histórico de Santiago, Santiago, RM (Metropolitana)",7.0,Gastos comunes aproximados $ 50.000,38 m² totales / 1 dormitorio / 1 baño,3,2023-05-17,Publicado hace 30 días por Houm,Departamento Máximo Humbser Id: 103461,https://www.portalinmobiliario.com/MLC-1550715336-departamento-maximo-humbser-id-103461-_JM#position=6&search_layout=stack&type=item&tracking_id=ac256d63-06e5-4dc0-ad21-1d8a6586b999,-33.4395645,-70.6448649,Santiago
"Santa Elena 2120, San Joaquín, Chile, Santiago, RM (Metropolitana)",289.0,Gastos comunes aproximados $ 57.000,25 m² totales / 1 dormitorio / 1 baño,3,2023-05-17,Publicado hace 23 días por Blue Home,"Santa Elena 2120 -  Departamento Studio, Santiago",https://www.portalinmobiliario.com/MLC-1376747687-santa-elena-2120-departamento-studio-santiago-_JM#position=7&search_layout=stack&type=item&tracking_id=ac256d63-06e5-4dc0-ad21-1d8a6586b999,-33.2115479,-70.7277606,Santiago
"Santa Elena 2120, San Joaquín, Chile, Santiago, RM (Metropolitana)",289.0,Gastos comunes aproximados $ 57.000,25 m² totales / 1 dormitorio / 1 baño,3,2023-05-17,Publicado hace 9 días por Blue Home,"Santa Elena 2120 -  Departamento Studio, Santiago",https://www.portalinmobiliario.com/MLC-1382056419-santa-elena-2120-departamento-studio-santiago-_JM#position=8&search_layout=stack&type=item&tracking_id=ac256d63-06e5-4dc0-ad21-1d8a6586b999,-33.2115479,-70.7277606,Santiago
"Avenida Mapocho, Parque Los Reyes, Santiago, RM (Metropolitana)",270.0,Gastos comunes aproximados $ 50.000,32 m² totales / 1 dormitorio / 1 baño,3,2023-05-17,Publicado hace 7 días por Houm,Departamento Avenida Mapocho Id: 107493,https://www.portalinmobiliario.com/MLC-1383042553-departamento-avenida-mapocho-id-107493-_JM#position=9&search_layout=stack&type=item&tracking_id=ac256d63-06e5-4dc0-ad21-1d8a6586b999,-33.4325865,-70.6755792,Santiago
"Nataniel Cox 599, Santiago, Chile, Parque Almagro, Santiago, RM (Metropolitana)",290.0,Gastos comunes aproximados $ 55.000,31 m² totales / 1 dormitorio / 1 baño,3,2023-05-17,Publicado hace 26 días,Arriendo Depto. Metro Parque Almagro,https://www.portalinmobiliario.com/MLC-1568288964-arriendo-depto-metro-parque-almagro-_JM#position=10&search_layout=stack&type=item&tracking_id=ac256d63-06e5-4dc0-ad21-1d8a6586b999,-33.4533672,-70.6527373,Santiago
"Avenida Santa Rosa 237, Santiago, Chile, Bulnes, Santiago, RM (Metropolitana)",291.0,Gastos comunes aproximados $ 71.000,34 m² totales / 1 dormitorio / 1 baño,3,2023-05-17,Publicado hace 12 días por Blue Home,"Santa Rosa 237 -  Departamento 1d1b, Santiago",https://www.portalinmobiliario.com/MLC-1380337029-santa-rosa-237-departamento-1d1b-santiago-_JM#position=11&search_layout=stack&type=item&tracking_id=ac256d63-06e5-4dc0-ad21-1d8a6586b999,-33.4470947,-70.64555429079586,Santiago
"Avenida Santa Rosa 237, Santiago, Chile, Bulnes, Santiago, RM (Metropolitana)",291.0,Gastos comunes aproximados $ 71.000,34 m² totales / 1 dormitorio / 1 baño,3,2023-05-17,Publicado hace 9 días por Blue Home,"Santa Rosa 237 -  Departamento 1d1b, Santiago",https://www.portalinmobiliario.com/MLC-1640248538-santa-rosa-237-departamento-1d1b-santiago-_JM#position=12&search_layout=stack&type=item&tracking_id=ac256d63-06e5-4dc0-ad21-1d8a6586b999,-33.4470947,-70.64555429079586,Santiago
"Santa Rosa, San Diego, Santiago, RM (Metropolitana)",260.0,Gastos comunes aproximados $ 60.000,22 m² totales / 1 dormitorio / 1 baño,3,2023-05-17,Publicado hace 7 días por Houm,Departamento Santa Rosa Id: 22203,https://www.portalinmobiliario.com/MLC-1650429266-departamento-santa-rosa-id-22203-_JM#position=13&search_layout=stack&type=item&tracking_id=ac256d63-06e5-4dc0-ad21-1d8a6586b999,-33.5424186,-70.6341116,Santiago
"Vicuna Mackenna - Avenida Vicuña Mackenna 625, Santiago, Chile, Santa Isabel, Santiago, RM (Metropolitana)",8.0,Gastos comunes aproximados $ 45.000,32 m² totales / 1 dormitorio / 1 baño,3,2023-05-17,Publicado hace 25 días,"Buenísimo, Impecable",https://www.portalinmobiliario.com/MLC-1375781697-buenisimo-impecable-_JM#position=14&search_layout=stack&type=item&tracking_id=ac256d63-06e5-4dc0-ad21-1d8a6586b999,-33.4511047,-70.6310103,Santiago
"Santo Domingo 3251, Santiago, Chile, Barrio Yungay, Santiago, RM (Metropolitana)",256.0,Gastos comunes aproximados $ 68.000,29 m² totales / 1 dormitorio / 1 baño,3,2023-05-17,Publicado hace 20 días por Blue Home,"Santo Domingo 3251 -  Departamento Studio, Santiago",https://www.portalinmobiliario.com/MLC-1378195053-santo-domingo-3251-departamento-studio-santiago-_JM#position=15&search_layout=stack&type=item&tracking_id=ac256d63-06e5-4dc0-ad21-1d8a6586b999,-33.4364604,-70.643372,Santiago
"Santo Domingo 3251, Santiago, Chile, Barrio Yungay, Santiago, RM (Metropolitana)",256.0,Gastos comunes aproximados $ 68.000,29 m² totales / 1 dormitorio / 1 baño,3,2023-05-17,Publicado hace 12 días por Blue Home,"Santo Domingo 3251 -  Departamento Studio, Santiago",https://www.portalinmobiliario.com/MLC-1380336713-santo-domingo-3251-departamento-studio-santiago-_JM#position=16&search_layout=stack&type=item&tracking_id=ac256d63-06e5-4dc0-ad21-1d8a6586b999,-33.4364604,-70.643372,Santiago
"Santo Domingo 3251, Santiago, Chile, Barrio Yungay, Santiago, RM (Metropolitana)",256.0,Gastos comunes aproximados $ 68.000,29 m² totales / 1 dormitorio / 1 baño,3,2023-05-17,Publicado hace 9 días por Blue Home,"Santo Domingo 3251 -  Departamento Studio, Santiago",https://www.portalinmobiliario.com/MLC-1382015515-santo-domingo-3251-departamento-studio-santiago-_JM#position=17&search_layout=stack&type=item&tracking_id=ac256d63-06e5-4dc0-ad21-1d8a6586b999,-33.4364604,-70.643372,Santiago
"Santo Domingo 3251, Santiago, Chile, Barrio Yungay, Santiago, RM (Metropolitana)",262.0,Gastos comunes aproximados $ 72.000,35 m² totales / 1 dormitorio / 1 baño,3,2023-05-17,Publicado hace 12 días por Blue Home,"Santo Domingo 3251 -  Departamento 1d1b, Santiago",https://www.portalinmobiliario.com/MLC-1380409867-santo-domingo-3251-departamento-1d1b-santiago-_JM#position=18&search_layout=stack&type=item&tracking_id=ac256d63-06e5-4dc0-ad21-1d8a6586b999,-33.4364604,-70.643372,Santiago
"Santo Domingo 3251, Santiago, Chile, Barrio Yungay, Santiago, RM (Metropolitana)",262.0,Gastos comunes aproximados $ 72.000,35 m² totales / 1 dormitorio / 1 baño,3,2023-05-17,Publicado hace 20 días por Blue Home,"Santo Domingo 3251 -  Departamento 1d1b, Santiago",https://www.portalinmobiliario.com/MLC-1594147674-santo-domingo-3251-departamento-1d1b-santiago-_JM#position=19&search_layout=stack&type=item&tracking_id=ac256d63-06e5-4dc0-ad21-1d8a6586b999,-33.4364604,-70.643372,Santiago
"Santo Domingo 3251, Santiago, Chile, Barrio Yungay, Santiago, RM (Metropolitana)",262.0,Gastos comunes aproximados $ 72.000,35 m² totales / 1 dormitorio / 1 baño,3,2023-05-17,Publicado hace 23 días por Blue Home,"Santo Domingo 3251 -  Departamento 1d1b, Santiago",https://www.portalinmobiliario.com/MLC-1376746535-santo-domingo-3251-departamento-1d1b-santiago-_JM#position=20&search_layout=stack&type=item&tracking_id=ac256d63-06e5-4dc0-ad21-1d8a6586b999,-33.4364604,-70.643372,Santiago
"Santo Domingo 3251, Santiago, Chile, Barrio Yungay, Santiago, RM (Metropolitana)",262.0,Gastos comunes aproximados $ 72.000,35 m² totales / 1 dormitorio / 1 baño,3,2023-05-17,Publicado hace 9 días por Blue Home,"Santo Domingo 3251 -  Departamento 1d1b, Santiago",https://www.portalinmobiliario.com/MLC-1639986786-santo-domingo-3251-departamento-1d1b-santiago-_JM#position=21&search_layout=stack&type=item&tracking_id=ac256d63-06e5-4dc0-ad21-1d8a6586b999,-33.4364604,-70.643372,Santiago
"Avenida Santa Rosa 634, Santiago, Chile, Barrio Diez de Julio, Santiago, RM (Metropolitana)",300.0,Gastos comunes aproximados $ 55.000,33 m² totales / 1 dormitorio / 1 baño,3,2023-05-17,Publicado hace 2 días,Dueño Arrienda,https://www.portalinmobiliario.com/MLC-1670513954-dueno-arrienda-_JM#position=22&search_layout=stack&type=item&tracking_id=ac256d63-06e5-4dc0-ad21-1d8a6586b999,-33.45228742040817,-70.64409292857142,Santiago
"Santo Domingo 755, Santiago, Chile, Centro Histórico de Santiago, Santiago, RM (Metropolitana)",300.0,Gastos comunes aproximados $ 50.000,25 m² totales / 1 dormitorio / 1 baño,3,2023-05-17,Publicado hace 4 días,Estudio Arriendo,https://www.portalinmobiliario.com/MLC-1384011851-estudio-arriendo-_JM#position=23&search_layout=stack&type=item&tracking_id=ac256d63-06e5-4dc0-ad21-1d8a6586b999,-33.435765638,-70.648111528,Santiago
"Tarapacá 1200 - 1500, Santiago, Chile, Bulnes, Santiago, RM (Metropolitana)",280.0,Gastos comunes aproximados $ 52.000,30 m² totales / 1 dormitorio / 1 baño,3,2023-05-17,Publicado hace 6 días,Excelente Dpto Pasos Metro Moneda,https://www.portalinmobiliario.com/MLC-1383557237-excelente-dpto-pasos-metro-moneda-_JM#position=24&search_layout=stack&type=item&tracking_id=ac256d63-06e5-4dc0-ad21-1d8a6586b999,-33.4476085,-70.6523128,Santiago
"San Francisco 265, Santiago, Chile, Bulnes, Santiago, RM (Metropolitana)",300.0,Gastos comunes aproximados $ 55.000,36 m² totales / 1 dormitorio / 1 baño,3,2023-05-17,Publicado hace 2 días,Dueño Directo,https://www.portalinmobiliario.com/MLC-1669632846-dueno-directo-_JM#position=25&search_layout=stack&type=item&tracking_id=ac256d63-06e5-4dc0-ad21-1d8a6586b999,-33.44783346,-70.64708983199999,Santiago
"Padre Miguel De Olivares 1405, Santiago, Chile, Bulnes, Santiago, RM (Metropolitana)",300.0,Gastos comunes aproximados $ 64.000,45 m² totales / 2 dormitorios / 1 baño,3,2023-05-17,Publicado hace 3 meses,Departamento Metro Moneda 2d 1 B Descuento 20% 1eros 2 Meses,https://www.portalinmobiliario.com/MLC-1674761278-departamento-metro-moneda-2d-1-b-descuento-20-1eros-2-meses-_JM#position=26&search_layout=stack&type=item&tracking_id=ac256d63-06e5-4dc0-ad21-1d8a6586b999,-33.4488301,-70.6534539,Santiago
"Catedral 1757, Santiago, Chile, Barrio Brasil, Santiago, RM (Metropolitana)",280.0,Gastos comunes aproximados $ 55.000,30.27 m² totales / 1 dormitorio / 1 baño,3,2023-05-17,Publicado hace 28 días,Estudio Amoblado + Bodega / Metro Santa Ana,https://www.portalinmobiliario.com/MLC-1560993484-estudio-amoblado-bodega-metro-santa-ana-_JM#position=27&search_layout=stack&type=item&tracking_id=ac256d63-06e5-4dc0-ad21-1d8a6586b999,-33.43839091428571,-70.66170745238095,Santiago
"Mapocho 1890, Parque Los Reyes, Santiago, RM (Metropolitana)",265.0,Gastos comunes aproximados $ 45.000,345 m² totales / 1 dormitorio / 1 baño,3,2023-05-17,Publicado hace 2 meses,Depto. Nuevo Jardines Mapocho 1d 1b ,https://www.portalinmobiliario.com/MLC-1365419046-depto-nuevo-jardines-mapocho-1d-1b-_JM#position=28&search_layout=stack&type=item&tracking_id=ac256d63-06e5-4dc0-ad21-1d8a6586b999,-33.43214918181818,-70.66394878181818,Santiago
"Sazie 2575, Barrio República, Santiago, RM (Metropolitana)",288.0,Gastos comunes aproximados $ 45.000,33.5 m² totales / 1 dormitorio / 1 baño,3,2023-05-17,Publicado hace 22 días,Departamento Arriendo Estudio Metro U L A (5 Mins),https://www.portalinmobiliario.com/MLC-1377252185-departamento-arriendo-estudio-metro-u-l-a-5-mins-_JM#position=29&search_layout=stack&type=item&tracking_id=ac256d63-06e5-4dc0-ad21-1d8a6586b999,-33.451960137096776,-70.67187221129032,Santiago
"Tarapacá 600 - 900, Santiago, Chile, Bulnes, Santiago, RM (Metropolitana)",290.0,Gastos comunes aproximados $ 45.000,36 m² totales / 1 dormitorio / 1 baño,3,2023-05-17,Publicado hace 59 días,"Tarapaca 752, Metro U De Chile Y Moneda ",https://www.portalinmobiliario.com/MLC-1556997374-tarapaca-752-metro-u-de-chile-y-moneda-_JM#position=30&search_layout=stack&type=item&tracking_id=ac256d63-06e5-4dc0-ad21-1d8a6586b999,-33.4469174,-70.6482145,Santiago
"Santo Domingo 1240, Santiago Centro, Santiago, Chile, Centro Histórico de Santiago, Santiago, RM (Metropolitana)",300.0,Gastos comunes aproximados $ 60.000,40 m² totales / 1 dormitorio / 1 baño,3,2023-05-17,Publicado hace 3 meses,Arriendo Departamento Santiago Centro (santo Domingo 1240),https://www.portalinmobiliario.com/MLC-1569126398-arriendo-departamento-santiago-centro-santo-domingo-1240-_JM#position=31&search_layout=stack&type=item&tracking_id=ac256d63-06e5-4dc0-ad21-1d8a6586b999,-33.436651653061226,-70.6547359367347,Santiago
"Santo Domingo 755, Santiago, Chile, Centro Histórico de Santiago, Santiago, RM (Metropolitana)",255.0,Gastos comunes aproximados $ 60.000,23 m² totales / 1 dormitorio / 1 baño,3,2023-05-17,Publicado hace 13 días,"Hermoso Departamento Tipo Estudio , Con Terraza",https://www.portalinmobiliario.com/MLC-1618237664-hermoso-departamento-tipo-estudio-con-terraza-_JM#position=32&search_layout=stack&type=item&tracking_id=ac256d63-06e5-4dc0-ad21-1d8a6586b999,-33.435765638,-70.648111528,Santiago
"Eyzaguirre 600 - 900, Santiago, Chile, San Diego, Santiago, RM (Metropolitana)",240.0,Gastos comunes aproximados $ 25.000,20.15 m² totales / 1 dormitorio / 1 baño,3,2023-05-17,Publicado hace 34 días,"Eyzaguirre, Home Studio. 50% De Descuento Por 3 Meses ",https://www.portalinmobiliario.com/MLC-1536633422-eyzaguirre-home-studio-50-de-descuento-por-3-meses-_JM#position=34&search_layout=stack&type=item&tracking_id=ac256d63-06e5-4dc0-ad21-1d8a6586b999,-33.452298915625,-70.647500178125,Santiago
"Santo Domingo 1364, Santiago, Chile, Centro Histórico de Santiago, Santiago, RM (Metropolitana)",300.0,Gastos comunes aproximados $ 45.000,36 m² totales / 1 dormitorio / 1 baño,3,2023-05-17,Publicado hace 2 meses,Departamento 1 Dormitorio 1 Baño Y Bodega,https://www.portalinmobiliario.com/MLC-1360244269-departamento-1-dormitorio-1-bano-y-bodega-_JM#position=35&search_layout=stack&type=item&tracking_id=ac256d63-06e5-4dc0-ad21-1d8a6586b999,-33.43685524693878,-70.65645189795919,Santiago
"Carmen 1153, Santiago, Chile, Bogotá - Sierra Bella, Santiago, RM (Metropolitana)",270.0,Gastos comunes aproximados $ 60.000,32 m² totales / 1 dormitorio / 1 baño,3,2023-05-17,Publicado hace 45 días,"Lindo Departamento 1h/1b, Cerca Metro Matta",https://www.portalinmobiliario.com/MLC-1490243196-lindo-departamento-1h1b-cerca-metro-matta-_JM#position=36&search_layout=stack&type=item&tracking_id=ac256d63-06e5-4dc0-ad21-1d8a6586b999,-33.45849317647059,-70.63940368235293,Santiago
"Avenida Portugal 415, Santiago, Chile, Santa Isabel, Santiago, RM (Metropolitana)",280.0,Gastos comunes aproximados $ 49.500,41 m² totales / 1 dormitorio / 1 baño,3,2023-05-17,Publicado hace 17 días,Lindo Departamento Studio.,https://www.portalinmobiliario.com/MLC-1379041649-lindo-departamento-studio-_JM#position=37&search_layout=stack&type=item&tracking_id=ac256d63-06e5-4dc0-ad21-1d8a6586b999,-33.44741466041667,-70.63563720208333,Santiago
"Eyzaguirre 600 - 900, Santiago, Chile, San Diego, Santiago, RM (Metropolitana)",300.0,Gastos comunes aproximados $ 50.000,35.72 m² totales / 2 dormitorios / 1 baño,3,2023-05-17,Publicado hace 35 días,Eyzaguirre 2 D+1b+k 50% Primeros Tres Meses Don Alfredo,https://www.portalinmobiliario.com/MLC-1532156716-eyzaguirre-2-d1bk-50-primeros-tres-meses-don-alfredo-_JM#position=38&search_layout=stack&type=item&tracking_id=ac256d63-06e5-4dc0-ad21-1d8a6586b999,-33.452298915625,-70.647500178125,Santiago
"Arturo Prat 644, Santiago, Chile, San Diego, Santiago, RM (Metropolitana)",280.0,Gastos comunes aproximados $ 65.000,38 m² totales / 1 dormitorio / 1 baño,3,2023-05-17,Publicado hace 5 meses,Sin Comision Piso 7 Hermoso Dpto En Arriendo 1d1b,https://www.portalinmobiliario.com/MLC-1551708720-sin-comision-piso-7-hermoso-dpto-en-arriendo-1d1b-_JM#position=39&search_layout=stack&type=item&tracking_id=ac256d63-06e5-4dc0-ad21-1d8a6586b999,-33.45311004,-70.648388224,Santiago
"Compañia De Jesus, Barrio Brasil, Santiago, RM (Metropolitana)",290.0,Gastos comunes aproximados $ 50.000,32 m² totales / 1 dormitorio / 1 baño,3,2023-05-17,Publicado hace 19 días,Departamento En Arriendo De 1 Dorm. En Santiago,https://www.portalinmobiliario.com/MLC-1378548499-departamento-en-arriendo-de-1-dorm-en-santiago-_JM#position=40&search_layout=stack&type=item&tracking_id=ac256d63-06e5-4dc0-ad21-1d8a6586b999,-33.4393266,-70.6596816,Santiago
"Zenteno 1200 - 1500, Santiago, Chile, Parque O'Higgins, Santiago, RM (Metropolitana)",230.0,Gastos comunes aproximados $ 32.000,28 m² totales / 1 dormitorio / 1 baño,3,2023-05-17,Publicado hace 34 días,Zenteno 1d+1b+k+b 50% De Descuentos Por Tres Meses,https://www.portalinmobiliario.com/MLC-1536272506-zenteno-1d1bkb-50-de-descuentos-por-tres-meses-_JM#position=41&search_layout=stack&type=item&tracking_id=ac256d63-06e5-4dc0-ad21-1d8a6586b999,-33.4501559,-70.6520803,Santiago
"Zenteno 1200 - 1500, Santiago, Chile, Parque O'Higgins, Santiago, RM (Metropolitana)",300.0,Gastos comunes aproximados $ 55.000,38.5 m² totales / 2 dormitorios / 1 baño,3,2023-05-17,Publicado hace 36 días,"Zenteno, 2d+1b+k+b  Descuento 50% Primeros 3 Meses",https://www.portalinmobiliario.com/MLC-1527637192-zenteno-2d1bkb-descuento-50-primeros-3-meses-_JM#position=42&search_layout=stack&type=item&tracking_id=ac256d63-06e5-4dc0-ad21-1d8a6586b999,-33.4501559,-70.6520803,Santiago
"San Martín 870, Santiago, Chile, Centro Histórico de Santiago, Santiago, RM (Metropolitana)",275.0,Gastos comunes aproximados $ 48.000,30 m² totales / 1 dormitorio / 1 baño,3,2023-05-17,Publicado hace 35 días,Departamento 1 Dormitorio 1 Baño Cercano Metro Santa Ana,https://www.portalinmobiliario.com/MLC-1532272704-departamento-1-dormitorio-1-bano-cercano-metro-santa-ana-_JM#position=44&search_layout=stack&type=item&tracking_id=ac256d63-06e5-4dc0-ad21-1d8a6586b999,-33.433576415789474,-70.65904792105262,Santiago
"Eyzaguirre 600 - 900, Santiago, Chile, San Diego, Santiago, RM (Metropolitana)",270.0,Gastos comunes aproximados $ 32.000,28.63 m² totales / 1 dormitorio / 1 baño,3,2023-05-17,Publicado hace 34 días,"Eyzaguirre , 1d+1b+k 50%de Descuento Por 3 Meses",https://www.portalinmobiliario.com/MLC-1536594302-eyzaguirre-1d1bk-50de-descuento-por-3-meses-_JM#position=45&search_layout=stack&type=item&tracking_id=ac256d63-06e5-4dc0-ad21-1d8a6586b999,-33.452298915625,-70.647500178125,Santiago
"Santa Isabel 797, Santiago, Chile, San Diego, Santiago, RM (Metropolitana)",300.0,Gastos comunes aproximados $ 55.000,38 m² totales / 1 dormitorio / 1 baño,3,2023-05-17,Publicado hace 13 días,Departamento Un Dormitorio,https://www.portalinmobiliario.com/MLC-1620939466-departamento-un-dormitorio-_JM#position=48&search_layout=stack&type=item&tracking_id=ac256d63-06e5-4dc0-ad21-1d8a6586b999,-33.4504096,-70.64679376070607,Santiago
"Tarapacá 1324, Santiago, Chile, Bulnes, Santiago, RM (Metropolitana)",290.0,Gastos comunes aproximados $ 60.000,35 m² totales / 1 dormitorio / 1 baño,3,2023-05-17,Publicado hace 40 días,Metro Moneda,https://www.portalinmobiliario.com/MLC-1661077892-metro-moneda-_JM#position=49&search_layout=stack&type=item&tracking_id=ac256d63-06e5-4dc0-ad21-1d8a6586b999,-33.5311327,-70.4794493,Santiago
"San Diego 161, Santiago, Chile, Bulnes, Santiago, RM (Metropolitana)",300.0,Gastos comunes aproximados $ 30.000,35 m² totales / 1 dormitorio / 1 baño,3,2023-05-17,Publicado hace 8 días,Lindo Departamento Salida Metro Universidad De Chile,https://www.portalinmobiliario.com/MLC-1644150850-lindo-departamento-salida-metro-universidad-de-chile-_JM#position=50&search_layout=stack&type=item&tracking_id=ac256d63-06e5-4dc0-ad21-1d8a6586b999,-33.4468796,-70.6513147475,Santiago
"Tarapacá 1331, Santiago, Chile, Bulnes, Santiago, RM (Metropolitana)",270.0,Gastos comunes aproximados $ 50.000,30 m² totales / 1 dormitorio / 1 baño,3,2023-05-17,Publicado hace 15 días,"Depto 1 Dormitorio, Excelente Ubicacion.   ",https://www.portalinmobiliario.com/MLC-1610738294-depto-1-dormitorio-excelente-ubicacion-_JM#position=1&search_layout=stack&type=item&tracking_id=2b008d32-1087-4191-a0c0-cf2360a8600a,-33.4476726,-70.6534737,Santiago
"Eyzaguirre 771, Santiago, Chile, San Diego, Santiago, RM (Metropolitana)",295.0,Gastos comunes aproximados $ 45.000,34 m² totales / 1 dormitorio / 1 baño,3,2023-05-17,Publicado hace 4 meses,Dpto 1d + 1b + Eyzaguirre 771,https://www.portalinmobiliario.com/MLC-1592323080-dpto-1d-1b-eyzaguirre-771-_JM#position=2&search_layout=stack&type=item&tracking_id=2b008d32-1087-4191-a0c0-cf2360a8600a,-33.4518854,-70.6461449,Santiago
"Avenida Manuel Rodríguez 881, Santiago, Chile, Centro Histórico de Santiago, Santiago, RM (Metropolitana)",300.0,,33 m² totales / 1 dormitorio / 1 baño,3,2023-05-17,Publicado hace 9 días,Manuel Rodríguez 881 - Metro Santa Ana - Entrega Inmediata,https://www.portalinmobiliario.com/MLC-1639996192-manuel-rodriguez-881-metro-santa-ana-entrega-inmediata-_JM#position=3&search_layout=stack&type=item&tracking_id=2b008d32-1087-4191-a0c0-cf2360a8600a,-33.5463584,-70.6150145,Santiago
"Lord Cochrane 181, Santiago, Chile, Bulnes, Santiago, RM (Metropolitana)",300.0,Gastos comunes aproximados $ 33.000,25 m² totales / 1 dormitorio / 1 baño,3,2023-05-17,Publicado hace 16 días,Excelente Home Studio,https://www.portalinmobiliario.com/MLC-1608974774-excelente-home-studio-_JM#position=4&search_layout=stack&type=item&tracking_id=2b008d32-1087-4191-a0c0-cf2360a8600a,-33.448512775,-70.654998775,Santiago
"Avenida San Ignacio 633, Santiago, Chile, Parque Almagro, Santiago, RM (Metropolitana)",270.0,Gastos comunes aproximados $ 76.000,30 m² totales / 1 dormitorio / 1 baño,3,2023-05-17,Publicado hace 14 días,Metro Toesca Departamento 1 Dormitorio,https://www.portalinmobiliario.com/MLC-1615406500-metro-toesca-departamento-1-dormitorio-_JM#position=5&search_layout=stack&type=item&tracking_id=2b008d32-1087-4191-a0c0-cf2360a8600a,-33.3305064,-70.70335,Santiago
"General Mackenna 1138, Santiago, Chile, Centro Histórico de Santiago, Santiago, RM (Metropolitana)",280.0,Gastos comunes aproximados $ 70.000,34 m² totales / 1 dormitorio / 1 baño,3,2023-05-17,Publicado hace 28 días,Arriendo Dpto Stgo Metro  Y Bus En La Puerta Arriendo,https://www.portalinmobiliario.com/MLC-1560896970-arriendo-dpto-stgo-metro-y-bus-en-la-puerta-arriendo-_JM#position=6&search_layout=stack&type=item&tracking_id=2b008d32-1087-4191-a0c0-cf2360a8600a,-33.433215257142855,-70.65347365714285,Santiago
"Enrique Mac Iver 120, Santiago, Chile, Centro Histórico de Santiago, Santiago, RM (Metropolitana)",6.0,Gastos comunes aproximados $ 40.000,25 m² totales / 1 dormitorio / 1 baño,3,2023-05-17,Publicado hace 7 días,Departamento Ubicado En Pleno Centro De Santiago,https://www.portalinmobiliario.com/MLC-1649732280-departamento-ubicado-en-pleno-centro-de-santiago-_JM#position=8&search_layout=stack&type=item&tracking_id=2b008d32-1087-4191-a0c0-cf2360a8600a,-33.44128459795918,-70.64667029591837,Santiago
"Arturo Prat 1312, Parque O'Higgins, Santiago, RM (Metropolitana)",210.0,Gastos comunes aproximados $ 50.000,30 m² totales / 1 dormitorio / 1 baño,3,2023-05-17,Publicado hace 6 días,Departamento En Arriendo En Santiago,https://www.portalinmobiliario.com/MLC-1383577681-departamento-en-arriendo-en-santiago-_JM#position=9&search_layout=stack&type=item&tracking_id=2b008d32-1087-4191-a0c0-cf2360a8600a,-33.3602535,-70.51595130173533,Santiago
"Avenida Portugal 564, Santiago, Chile, Santa Isabel, Santiago, RM (Metropolitana)",250.0,Gastos comunes aproximados $ 50.000,25 m² totales / 1 baño,2,2023-05-17,Publicado hace 6 días,Estudio A Pasos Metro Santa Isabel,https://www.portalinmobiliario.com/MLC-1654278996-estudio-a-pasos-metro-santa-isabel-_JM#position=10&search_layout=stack&type=item&tracking_id=2b008d32-1087-4191-a0c0-cf2360a8600a,-33.449029525,-70.634955575,Santiago
"Catedral 2850, Santiago, Barrio Yungay, Santiago, RM (Metropolitana)",300.0,,32 m² totales / 1 dormitorio / 1 baño,3,2023-05-17,Publicado hace 4 días,Departamento Arrienda Catedral / Metro Qta. Normal / Linea 5,https://www.portalinmobiliario.com/MLC-1383865609-departamento-arrienda-catedral-metro-qta-normal-linea-5-_JM#position=11&search_layout=stack&type=item&tracking_id=2b008d32-1087-4191-a0c0-cf2360a8600a,-33.4402072,-70.67494529634266,Santiago
"Carmen 616, Barrio Diez de Julio, Santiago, RM (Metropolitana)",260.0,Gastos comunes aproximados $ 45.000,36 m² totales / 1 dormitorio / 1 baño,3,2023-05-17,Publicado hace 4 días por Capitalizarme Rent,Ref:13702**   Arriendo Dpto 1d 1b Estac Bodega. Barrio Unive,https://www.portalinmobiliario.com/MLC-1383972779-ref13702-arriendo-dpto-1d-1b-estac-bodega-barrio-unive-_JM#position=13&search_layout=stack&type=item&tracking_id=2b008d32-1087-4191-a0c0-cf2360a8600a,-33.45602144563107,-70.63956516893204,Santiago
"Matucana 1161, Santiago, RM (Metropolitana)",300.0,Gastos comunes aproximados $ 60.000,37.9 m² totales / 1 dormitorio / 1 baño,3,2023-05-17,Publicado hace 4 días por Capitalizarme Rent,Ref:10693**           Arriendo Dpto 1 Dormitorio 1 Baño. Est,https://www.portalinmobiliario.com/MLC-1663018992-ref10693-arriendo-dpto-1-dormitorio-1-bano-est-_JM#position=14&search_layout=stack&type=item&tracking_id=2b008d32-1087-4191-a0c0-cf2360a8600a,-33.4463373,-70.6793156,Santiago
"Avenida Portugal 564, Santiago, Chile, Santa Isabel, Santiago, RM (Metropolitana)",300.0,Gastos comunes aproximados $ 35.000,24 m² totales / 1 dormitorio / 1 baño,3,2023-05-17,Publicado hace 2 días,Arriendo Departamento Amoblado Studio Santiago (3132),https://www.portalinmobiliario.com/MLC-1669033870-arriendo-departamento-amoblado-studio-santiago-3132-_JM#position=15&search_layout=stack&type=item&tracking_id=2b008d32-1087-4191-a0c0-cf2360a8600a,-33.449029525,-70.634955575,Santiago
"Santiago 1320, Santiago, Chile, Parque O'Higgins, Santiago, RM (Metropolitana)",280.0,Gastos comunes aproximados $ 40.000,41 m² totales / 1 dormitorio / 1 baño,3,2023-05-17,Publicado hace 6 días,Vista Despejada Nataniel Cox 1d1b + Bdga,https://www.portalinmobiliario.com/MLC-1655192260-vista-despejada-nataniel-cox-1d1b-bdga-_JM#position=18&search_layout=stack&type=item&tracking_id=2b008d32-1087-4191-a0c0-cf2360a8600a,-33.4377756,-70.6504502,Santiago
"Huerfanos 1400, Santiago, Chile, Centro Histórico de Santiago, Santiago, RM (Metropolitana)",290.0,Gastos comunes aproximados $ 60.000,22 m² totales / 1 dormitorio / 1 baño,3,2023-05-17,Publicado hace 2 días,Arriendo Departamento Amoblado Studio Santiago (3998),https://www.portalinmobiliario.com/MLC-1669616036-arriendo-departamento-amoblado-studio-santiago-3998-_JM#position=19&search_layout=stack&type=item&tracking_id=2b008d32-1087-4191-a0c0-cf2360a8600a,-33.4401115,-70.6556987,Santiago
"Mosqueto 300 - 600, Santiago, Chile, Centro Histórico de Santiago, Santiago, RM (Metropolitana)",300.0,Gastos comunes aproximados $ 70.000,30 m² totales / 1 dormitorio / 1 baño,3,2023-05-17,Publicado hace 1 día,Dpto Studio 1 Ambiente - Mosqueto / Metro Bellas Artes,https://www.portalinmobiliario.com/MLC-1384750871-dpto-studio-1-ambiente-mosqueto-metro-bellas-artes-_JM#position=20&search_layout=stack&type=item&tracking_id=2b008d32-1087-4191-a0c0-cf2360a8600a,-33.4357769,-70.6444443,Santiago
"Avenida España,,gorbea, Barrio República, Santiago, RM (Metropolitana)",300.0,Gastos comunes aproximados $ 65.000,36 m² totales / 1 dormitorio / 1 baño,3,2023-05-17,Publicado hace 1 día por Unne,"Cumbrespro Arrienda, Amplio Dpto. 1d/1b, Con Bodega",https://www.portalinmobiliario.com/MLC-1384735249-cumbrespro-arrienda-amplio-dpto-1d1b-con-bodega-_JM#position=21&search_layout=stack&type=item&tracking_id=2b008d32-1087-4191-a0c0-cf2360a8600a,-33.4576546,-70.6683491,Santiago
"San Martín 600 - 900, Santiago, Chile, Centro Histórico de Santiago, Santiago, RM (Metropolitana)",270.0,Gastos comunes aproximados $ 43.000,27 m² totales / 1 dormitorio / 1 baño,3,2023-05-17,Publicado hace 2 días,San Martín/mtro.sta.ana  Disponibilidad Inmediata,https://www.portalinmobiliario.com/MLC-1666732334-san-martinmtrostaana-disponibilidad-inmediata-_JM#position=22&search_layout=stack&type=item&tracking_id=2b008d32-1087-4191-a0c0-cf2360a8600a,-33.43682452352941,-70.65861710392157,Santiago
"Lira , Santa Isabel, Santa Isabel, Santiago, RM (Metropolitana)",8.0,Gastos comunes aproximados $ 32.000,31 m² totales / 1 dormitorio / 1 baño,3,2023-05-17,Publicado hace 1 día,Departamento En Arriendo De 1 Dorm. En Santiago,https://www.portalinmobiliario.com/MLC-1385063199-departamento-en-arriendo-de-1-dorm-en-santiago-_JM#position=24&search_layout=stack&type=item&tracking_id=2b008d32-1087-4191-a0c0-cf2360a8600a,-33.4412479,-70.6418612,Santiago
"Avenida Ejército Libertador 300 - 600, Santiago, Chile, Ejército - Toesca, Santiago, RM (Metropolitana)",300.0,Gastos comunes aproximados $ 75.000,33 m² totales / 1 dormitorio / 1 baño,3,2023-05-17,Publicado hace 1 día,"Depto 1 Dormit Metro Toesca, Autopista Central",https://www.portalinmobiliario.com/MLC-1674699346-depto-1-dormit-metro-toesca-autopista-central-_JM#position=25&search_layout=stack&type=item&tracking_id=2b008d32-1087-4191-a0c0-cf2360a8600a,-33.5712324,-70.5987111,Santiago
"San Isidro 1 - 300, Santiago, Chile, Santa Isabel, Santiago, RM (Metropolitana)",290.0,Gastos comunes aproximados $ 40.000,40 m² totales / 1 dormitorio / 1 baño,3,2023-05-17,Publicado hace 2 días,"Departamento En Arriendo San Isidro, Santiago",https://www.portalinmobiliario.com/MLC-1384475857-departamento-en-arriendo-san-isidro-santiago-_JM#position=26&search_layout=stack&type=item&tracking_id=2b008d32-1087-4191-a0c0-cf2360a8600a,-33.4489944,-70.6434189,Santiago
"Santa Elena, Santiago, Chile, Bogotá - Sierra Bella, Santiago, RM (Metropolitana)",290.0,Gastos comunes aproximados $ 48.000,32 m² totales / 1 dormitorio / 1 baño,3,2023-05-17,Publicado hace 1 día,Dpto En Arriendo A Pasos E Metro Ñuble,https://www.portalinmobiliario.com/MLC-1675342994-dpto-en-arriendo-a-pasos-e-metro-nuble-_JM#position=27&search_layout=stack&type=item&tracking_id=2b008d32-1087-4191-a0c0-cf2360a8600a,-33.2147156,-70.7328134,Santiago
"Morandé, Centro Histórico de Santiago, Santiago, RM (Metropolitana)",250.0,Gastos comunes aproximados $ 85.000,68 m² totales / 2 dormitorios / 2 baños,3,2023-05-17,Publicado hace 5 días por Houm,Departamento Morandé Id: 58295,https://www.portalinmobiliario.com/MLC-1383646959-departamento-morande-id-58295-_JM#position=29&search_layout=stack&type=item&tracking_id=2b008d32-1087-4191-a0c0-cf2360a8600a,-33.4405138,-70.6536014,Santiago
"Sargento Aldea 1156, Parque O'Higgins, Santiago, RM (Metropolitana)",240.0,,31 m² totales / 1 dormitorio / 1 baño,3,2023-05-17,Publicado hace 1 día,Sin Aval 1d 1b Con Bodega San Diego,https://www.portalinmobiliario.com/MLC-1678139858-sin-aval-1d-1b-con-bodega-san-diego-_JM#position=31&search_layout=stack&type=item&tracking_id=2b008d32-1087-4191-a0c0-cf2360a8600a,-33.468782195918365,-70.64908206530612,Santiago
"Huerfanos 1400, Santiago, Chile, Centro Histórico de Santiago, Santiago, RM (Metropolitana)",300.0,Gastos comunes aproximados $ 78.000,35 m² totales / 1 dormitorio / 1 baño,3,2023-05-17,Publicado hace 2 días,"Depto. 1d / 1b  Huérfanos Con Anunategui, Centro De Santiago",https://www.portalinmobiliario.com/MLC-1669183038-depto-1d-1b-huerfanos-con-anunategui-centro-de-santiago-_JM#position=32&search_layout=stack&type=item&tracking_id=2b008d32-1087-4191-a0c0-cf2360a8600a,-33.4401115,-70.6556987,Santiago
"Av. Portugal 981, Barrio Diez de Julio, Santiago, RM (Metropolitana)",279.0,Gastos comunes aproximados $ 35.000,23 m² totales / 1 dormitorio / 1 baño,3,2023-05-17,Publicado hace 6 días por Assetplan Chile,Edificio Av. Portugal Vista Sur Piso 17,https://www.portalinmobiliario.com/MLC-1654503926-edificio-av-portugal-vista-sur-piso-17-_JM#position=34&search_layout=stack&type=item&tracking_id=2b008d32-1087-4191-a0c0-cf2360a8600a,-33.454930927999996,-70.633714352,Santiago
"San Francisco 300 - 600, Santiago, Chile, San Diego, Santiago, RM (Metropolitana)",260.0,Gastos comunes aproximados $ 60.000,24 m² totales / 1 dormitorio / 1 baño,3,2023-05-17,Publicado hace 2 días,"Home Estudio Un Ambiente San Francisco 335, M. Santa Lucía",https://www.portalinmobiliario.com/MLC-1669616902-home-estudio-un-ambiente-san-francisco-335-m-santa-lucia-_JM#position=35&search_layout=stack&type=item&tracking_id=2b008d32-1087-4191-a0c0-cf2360a8600a,-33.4459235,-70.6470737,Santiago
"Santo Domingo 664, Centro Histórico de Santiago, Santiago, RM (Metropolitana)",260.0,Gastos comunes aproximados $ 105.000,24 m² totales / 1 dormitorio / 1 baño,3,2023-05-17,Publicado hace 6 días por Assetplan Chile,Edificio Santo Domingo Piso 14,https://www.portalinmobiliario.com/MLC-1655042960-edificio-santo-domingo-piso-14-_JM#position=36&search_layout=stack&type=item&tracking_id=2b008d32-1087-4191-a0c0-cf2360a8600a,-33.43580664255319,-70.64677717659575,Santiago
"General Mackenna, Centro Histórico de Santiago, Santiago, RM (Metropolitana)",246.75,Gastos comunes aproximados $ 60.000,30 m² totales / 1 dormitorio / 1 baño,3,2023-05-17,Publicado hace 6 días por Houm,Departamento General Mackenna Id: 37391,https://www.portalinmobiliario.com/MLC-1383146895-departamento-general-mackenna-id-37391-_JM#position=37&search_layout=stack&type=item&tracking_id=2b008d32-1087-4191-a0c0-cf2360a8600a,-33.4331961,-70.655742,Santiago
"Centro Histórico de Santiago, Santiago, RM (Metropolitana)",290.0,Gastos comunes aproximados $ 54.000,42 m² totales / 1 dormitorio / 1 baño,3,2023-05-17,Publicado hace 6 días por C21 Aprica,Se Arrienda Departamento 1 Dormitorio En Santiago Centro,https://www.portalinmobiliario.com/MLC-1383576347-se-arrienda-departamento-1-dormitorio-en-santiago-centro-_JM#position=40&search_layout=stack&type=item&tracking_id=2b008d32-1087-4191-a0c0-cf2360a8600a,-33.4379207,-70.6504515,Santiago
"Moneda, Almirante Barroso, Barrio Brasil, Santiago, RM (Metropolitana)",260.0,Gastos comunes aproximados $ 50.000,45 m² totales / 1 dormitorio / 1 baño,3,2023-05-17,Publicado hace 1 día,Departamento En Arriendo De 1 Dorm. En Santiago,https://www.portalinmobiliario.com/MLC-1677674470-departamento-en-arriendo-de-1-dorm-en-santiago-_JM#position=41&search_layout=stack&type=item&tracking_id=2b008d32-1087-4191-a0c0-cf2360a8600a,-33.4431744,-70.6633208,Santiago
"Nueva San Martín 65, Santiago, Chile, Centro Histórico de Santiago, Santiago, RM (Metropolitana)",300.0,Gastos comunes aproximados $ 42.000,28 m² totales / 1 dormitorio / 1 baño,3,2023-05-17,Publicado hace 1 día,Mg Home Studio Amplio Amoblado Metro Moneda,https://www.portalinmobiliario.com/MLC-1674434812-mg-home-studio-amplio-amoblado-metro-moneda-_JM#position=42&search_layout=stack&type=item&tracking_id=2b008d32-1087-4191-a0c0-cf2360a8600a,-33.4409713,-70.6586019,Santiago
"Maturana 18, Santiago, Chile, Barrio Brasil, Santiago, RM (Metropolitana)",260.0,,25 m² totales / 1 dormitorio / 1 baño,3,2023-05-17,Publicado hace 6 días,"A Una Cuadra De Metro Republica, Sin Gastos Comunes.",https://www.portalinmobiliario.com/MLC-1383462465-a-una-cuadra-de-metro-republica-sin-gastos-comunes-_JM#position=43&search_layout=stack&type=item&tracking_id=2b008d32-1087-4191-a0c0-cf2360a8600a,-33.44646363333334,-70.6662691,Santiago
"Huerfanos, Barrio Brasil, Santiago, RM (Metropolitana)",280.0,Gastos comunes aproximados $ 50.000,33 m² totales / 1 dormitorio / 1 baño,3,2023-05-17,Publicado hace 6 días por Houm,Departamento Huerfanos Id: 57908,https://www.portalinmobiliario.com/MLC-1652746654-departamento-huerfanos-id-57908-_JM#position=44&search_layout=stack&type=item&tracking_id=2b008d32-1087-4191-a0c0-cf2360a8600a,-33.4424716,-70.6775082,Santiago
"San Martín 714, Santiago, Chile, Centro Histórico de Santiago, Santiago, RM (Metropolitana)",230.0,Gastos comunes aproximados $ 50.000,26 m² totales / 1 dormitorio / 1 baño,3,2023-05-17,Publicado hace 1 día,"Arriendo Depto 1d 1b Piso 7, En Stgo Centro, Metro Santa Ana",https://www.portalinmobiliario.com/MLC-1675339466-arriendo-depto-1d-1b-piso-7-en-stgo-centro-metro-santa-ana-_JM#position=45&search_layout=stack&type=item&tracking_id=2b008d32-1087-4191-a0c0-cf2360a8600a,-33.435536355102045,-70.65877809387754,Santiago
"Eyzaguirre 771, San Diego, Santiago, RM (Metropolitana)",275.0,Gastos comunes aproximados $ 35.000,24.95 m² totales / 1 dormitorio / 1 baño,3,2023-05-17,Publicado hace 6 días por Assetplan Chile,Edificio Eyzaguirre Vista Poniente Piso 11,https://www.portalinmobiliario.com/MLC-1383404893-edificio-eyzaguirre-vista-poniente-piso-11-_JM#position=46&search_layout=stack&type=item&tracking_id=2b008d32-1087-4191-a0c0-cf2360a8600a,-33.4518854,-70.6461449,Santiago
"Arturo Prat, San Diego, Santiago, RM (Metropolitana)",252.5,Gastos comunes aproximados $ 45.000,29 m² totales / 1 dormitorio / 1 baño,3,2023-05-17,Publicado hace 6 días por Houm,Departamento Arturo Prat Id: 106818,https://www.portalinmobiliario.com/MLC-1383149799-departamento-arturo-prat-id-106818-_JM#position=49&search_layout=stack&type=item&tracking_id=2b008d32-1087-4191-a0c0-cf2360a8600a,-33.7282034,-70.7742745,Santiago
"Lord Cochrane 173, Santiago, Chile, Bulnes, Santiago, RM (Metropolitana)",300.0,Gastos comunes aproximados $ 40.000,30 m² totales / 1 dormitorio / 1 baño,3,2023-05-17,Publicado hace 6 días,Home Studio Metro Moneda Semi Amoblado,https://www.portalinmobiliario.com/MLC-1653931142-home-studio-metro-moneda-semi-amoblado-_JM#position=1&search_layout=stack&type=item&tracking_id=687d63ea-a4c7-485d-95ec-dec6c0b3fd5e,-33.448370275,-70.655019475,Santiago
"Carmen 110, Santa Isabel, Santiago, RM (Metropolitana)",300.0,Gastos comunes aproximados $ 45.000,30 m² totales / 1 dormitorio / 1 baño,3,2023-05-17,Publicado hace 6 días por Assetplan Chile,Edificio Carmen Piso 8,https://www.portalinmobiliario.com/MLC-1383472233-edificio-carmen-piso-8-_JM#position=2&search_layout=stack&type=item&tracking_id=687d63ea-a4c7-485d-95ec-dec6c0b3fd5e,-33.444655166666664,-70.64276976666666,Santiago
"Argomedo 344, Santa Isabel, Santiago, RM (Metropolitana)",290.0,Gastos comunes aproximados $ 45.000,29.42 m² totales / 1 dormitorio / 1 baño,3,2023-05-17,Publicado hace 1 día por Assetplan Chile,Edificio Argomedo (1 Bod.) Vista Norte Piso 4,https://www.portalinmobiliario.com/MLC-1674441952-edificio-argomedo-1-bod-vista-norte-piso-4-_JM#position=3&search_layout=stack&type=item&tracking_id=687d63ea-a4c7-485d-95ec-dec6c0b3fd5e,-33.4497984,-70.6363841,Santiago
"Eyzaguirre 771, San Diego, Santiago, RM (Metropolitana)",290.0,,35 m² totales / 1 dormitorio / 1 baño,3,2023-05-17,Publicado hace 3 días por Corredores Independientes,"Rebajado, Sin Uso, Edificio Full Equipado, A Pasos Metro Par",https://www.portalinmobiliario.com/MLC-1665315508-rebajado-sin-uso-edificio-full-equipado-a-pasos-metro-par-_JM#position=5&search_layout=stack&type=item&tracking_id=687d63ea-a4c7-485d-95ec-dec6c0b3fd5e,-33.4518854,-70.6461449,Santiago
"Tarapacá 600 - 900, Santiago, Chile, Bulnes, Santiago, RM (Metropolitana)",290.0,Gastos comunes aproximados $ 45.000,38 m² totales / 1 dormitorio / 1 baño,3,2023-05-17,Publicado hace 5 días,"A 2 Cuadras De Estación Metro Santa Lucía, 1 Dormitorio.",https://www.portalinmobiliario.com/MLC-1661452530-a-2-cuadras-de-estacion-metro-santa-lucia-1-dormitorio-_JM#position=6&search_layout=stack&type=item&tracking_id=687d63ea-a4c7-485d-95ec-dec6c0b3fd5e,-33.4469174,-70.6482145,Santiago
"Merced 514, Santiago, Chile, Centro Histórico de Santiago, Santiago, RM (Metropolitana)",300.0,Gastos comunes aproximados $ 60.000,41 m² totales / 1 dormitorio / 1 baño,3,2023-05-17,Publicado hace 2 días,"Depto 1 Dorm,baño, Bodega En Merced 516/metro Bellas Artes",https://www.portalinmobiliario.com/MLC-1669633980-depto-1-dormbano-bodega-en-merced-516metro-bellas-artes-_JM#position=7&search_layout=stack&type=item&tracking_id=687d63ea-a4c7-485d-95ec-dec6c0b3fd5e,-33.43794557692308,-70.64455838076924,Santiago
"Avenida Mapocho, Parque Los Reyes, Santiago, RM (Metropolitana)",270.0,Gastos comunes aproximados $ 50.000,32 m² totales / 1 dormitorio / 1 baño,3,2023-05-17,Publicado hace 1 día por Houm,Departamento Avenida Mapocho Id: 108311,https://www.portalinmobiliario.com/MLC-1384519359-departamento-avenida-mapocho-id-108311-_JM#position=8&search_layout=stack&type=item&tracking_id=687d63ea-a4c7-485d-95ec-dec6c0b3fd5e,-33.4325865,-70.6755792,Santiago
"Santo Domingo ,, Mac Iver, Centro Histórico de Santiago, Santiago, RM (Metropolitana)",300.0,Gastos comunes aproximados $ 80.000,25.4 m² totales / 1 dormitorio / 1 baño,3,2023-05-17,Publicado hace 2 días por Unne,Estudio Amoblado Con Terraza,https://www.portalinmobiliario.com/MLC-1384475681-estudio-amoblado-con-terraza-_JM#position=9&search_layout=stack&type=item&tracking_id=687d63ea-a4c7-485d-95ec-dec6c0b3fd5e,-33.6400483,-70.7671988,Santiago
"Eyzaguirre 600 - 900, Santiago, Chile, San Diego, Santiago, RM (Metropolitana)",270.0,Gastos comunes aproximados $ 50.000,25 m² totales / 1 dormitorio / 1 baño,3,2023-05-17,Publicado hace 6 días por Polaris Propiedades,Stgo. Centro * Home Studio Para Estrenar!,https://www.portalinmobiliario.com/MLC-1654278902-stgo-centro-home-studio-para-estrenar-_JM#position=10&search_layout=stack&type=item&tracking_id=687d63ea-a4c7-485d-95ec-dec6c0b3fd5e,-33.452298915625,-70.647500178125,Santiago
"Merced 562, Centro Histórico de Santiago, Santiago, RM (Metropolitana)",300.0,Gastos comunes aproximados $ 45.000,31 m² totales / 1 dormitorio / 1 baño,3,2023-05-17,Publicado hace 2 días por Assetplan Chile,Edificio Merced Piso 13,https://www.portalinmobiliario.com/MLC-1384405265-edificio-merced-piso-13-_JM#position=11&search_layout=stack&type=item&tracking_id=687d63ea-a4c7-485d-95ec-dec6c0b3fd5e,-33.4380476,-70.6447695,Santiago
"Merced 600 - 900, Santiago, Chile, Centro Histórico de Santiago, Santiago, RM (Metropolitana)",300.0,,35 m² totales / 1 dormitorio / 1 baño,3,2023-05-17,Publicado hace 6 días,Se Arrienda Estupendo Departamento Merced-metro Bellas Artes,https://www.portalinmobiliario.com/MLC-1655205844-se-arrienda-estupendo-departamento-merced-metro-bellas-artes-_JM#position=13&search_layout=stack&type=item&tracking_id=687d63ea-a4c7-485d-95ec-dec6c0b3fd5e,-33.4380835,-70.6458368,Santiago
"Avenida Mapocho, Parque Los Reyes, Santiago, RM (Metropolitana)",270.0,Gastos comunes aproximados $ 50.000,32 m² totales / 1 dormitorio / 1 baño,3,2023-05-17,Publicado hace 1 día por Houm,Departamento Avenida Mapocho Id: 108310,https://www.portalinmobiliario.com/MLC-1672478672-departamento-avenida-mapocho-id-108310-_JM#position=14&search_layout=stack&type=item&tracking_id=687d63ea-a4c7-485d-95ec-dec6c0b3fd5e,-33.4325865,-70.6755792,Santiago
"Lord Cochrane, Parque Almagro, Santiago, RM (Metropolitana)",260.0,Gastos comunes aproximados $ 40.000,25 m² totales / 1 dormitorio / 1 baño,3,2023-05-17,Publicado hace 5 días por Houm,Departamento Lord Cochrane Id: 108091,https://www.portalinmobiliario.com/MLC-1661438806-departamento-lord-cochrane-id-108091-_JM#position=15&search_layout=stack&type=item&tracking_id=687d63ea-a4c7-485d-95ec-dec6c0b3fd5e,-33.4618418,-70.6531468,Santiago
"Avenida Mapocho, Parque Los Reyes, Santiago, RM (Metropolitana)",270.0,Gastos comunes aproximados $ 50.000,32 m² totales / 1 dormitorio / 1 baño,3,2023-05-17,Publicado hace 1 día por Houm,Departamento Avenida Mapocho Id: 108309,https://www.portalinmobiliario.com/MLC-1384570313-departamento-avenida-mapocho-id-108309-_JM#position=16&search_layout=stack&type=item&tracking_id=687d63ea-a4c7-485d-95ec-dec6c0b3fd5e,-33.4325865,-70.6755792,Santiago
"Avenida Mapocho, Parque Los Reyes, Santiago, RM (Metropolitana)",270.0,Gastos comunes aproximados $ 50.000,32 m² totales / 1 dormitorio / 1 baño,3,2023-05-17,Publicado hace 1 día por Houm,Departamento Avenida Mapocho Id: 108314,https://www.portalinmobiliario.com/MLC-1384545243-departamento-avenida-mapocho-id-108314-_JM#position=17&search_layout=stack&type=item&tracking_id=687d63ea-a4c7-485d-95ec-dec6c0b3fd5e,-33.4325865,-70.6755792,Santiago
"Serrano 266, Santiago, Chile, Bulnes, Santiago, RM (Metropolitana)",295.0,Gastos comunes aproximados $ 50.000,33 m² totales / 1 dormitorio / 1 baño,3,2023-05-17,Publicado hace 4 días,Metro Universidad De Chile,https://www.portalinmobiliario.com/MLC-1661431672-metro-universidad-de-chile-_JM#position=18&search_layout=stack&type=item&tracking_id=687d63ea-a4c7-485d-95ec-dec6c0b3fd5e,-33.8161244,-70.7462431,Santiago
"Lord Cochrane 209, Bulnes, Santiago, RM (Metropolitana)",300.0,Gastos comunes aproximados $ 40.000,29 m² totales / 1 dormitorio / 1 baño,3,2023-05-17,Publicado hace 1 día por Assetplan Chile,Edificio Lord Cochrane Vista Sur Piso 3,https://www.portalinmobiliario.com/MLC-1384741895-edificio-lord-cochrane-vista-sur-piso-3-_JM#position=19&search_layout=stack&type=item&tracking_id=687d63ea-a4c7-485d-95ec-dec6c0b3fd5e,-33.4494469,-70.65516594311204,Santiago
"Museo De Bellas Artes, Centro Histórico de Santiago, Santiago, RM (Metropolitana)",290.0,Gastos comunes aproximados $ 55.000,42 m² totales / 1 dormitorio / 1 baño,3,2023-05-17,Publicado hace 2 días,"Acogedor Departamento, Recién Remodelado. ",https://www.portalinmobiliario.com/MLC-1668683998-acogedor-departamento-recien-remodelado-_JM#position=20&search_layout=stack&type=item&tracking_id=687d63ea-a4c7-485d-95ec-dec6c0b3fd5e,-33.4351126,-70.6444844,Santiago
"San Diego 313, Santiago, Chile, Parque Almagro, Santiago, RM (Metropolitana)",250.0,Gastos comunes aproximados $ 40.000,28 m² totales / 1 dormitorio / 1 baño,3,2023-05-17,Publicado hace 6 días,"Depto 1d/1b, Piso 21, En San Diego 313, Metro Parque Almagro",https://www.portalinmobiliario.com/MLC-1383568141-depto-1d1b-piso-21-en-san-diego-313-metro-parque-almagro-_JM#position=21&search_layout=stack&type=item&tracking_id=687d63ea-a4c7-485d-95ec-dec6c0b3fd5e,-33.4496313,-70.65108851960295,Santiago
"San Martín 714, Centro Histórico de Santiago, Santiago, RM (Metropolitana)",300.0,Gastos comunes aproximados $ 50.000,26 m² totales / 1 dormitorio / 1 baño,3,2023-05-17,Publicado hace 6 días por Assetplan Chile,Edificio San Martín Piso 17,https://www.portalinmobiliario.com/MLC-1655043274-edificio-san-martin-piso-17-_JM#position=22&search_layout=stack&type=item&tracking_id=687d63ea-a4c7-485d-95ec-dec6c0b3fd5e,-33.435536355102045,-70.65877809387754,Santiago
"San Diego 255, Bulnes, Santiago, RM (Metropolitana)",300.0,Gastos comunes aproximados $ 35.000,32.06 m² totales / 1 dormitorio / 1 baño,3,2023-05-17,Publicado hace 1 día por Assetplan Chile,Edificio San Diego Vista Sur Piso 26,https://www.portalinmobiliario.com/MLC-1384679341-edificio-san-diego-vista-sur-piso-26-_JM#position=23&search_layout=stack&type=item&tracking_id=687d63ea-a4c7-485d-95ec-dec6c0b3fd5e,-33.44855325,-70.65116217587727,Santiago
"Tarapacá 876, Bulnes, Santiago, RM (Metropolitana)",285.0,Gastos comunes aproximados $ 45.000,33 m² totales / 1 dormitorio / 1 baño,3,2023-05-17,Publicado hace 4 días por Capitalizarme Rent,Ref:13504**       Metro U. De Chile; Arriendo Departamento 1,https://www.portalinmobiliario.com/MLC-1383939721-ref13504-metro-u-de-chile-arriendo-departamento-1-_JM#position=24&search_layout=stack&type=item&tracking_id=687d63ea-a4c7-485d-95ec-dec6c0b3fd5e,-33.4476085,-70.6523128,Santiago
"Eleuterio Ramirez 1070, San Diego, Santiago, RM (Metropolitana)",300.0,,40 m² totales / 1 dormitorio / 1 baño,3,2023-05-17,Publicado hace 6 días,Arriendo Disponible 1d1b Metro U. De Chile - Parque Almagro,https://www.portalinmobiliario.com/MLC-1383535627-arriendo-disponible-1d1b-metro-u-de-chile-parque-almagro-_JM#position=25&search_layout=stack&type=item&tracking_id=687d63ea-a4c7-485d-95ec-dec6c0b3fd5e,-33.1746834,-70.6340332,Santiago
"Tarapacá, Bulnes, Santiago, RM (Metropolitana)",300.0,,33 m² totales / 1 dormitorio / 1 baño,3,2023-05-17,Publicado hace 6 días,Departamento A Pasos De Metro Moneda,https://www.portalinmobiliario.com/MLC-1655209728-departamento-a-pasos-de-metro-moneda-_JM#position=27&search_layout=stack&type=item&tracking_id=687d63ea-a4c7-485d-95ec-dec6c0b3fd5e,-33.4476085,-70.6523128,Santiago
"San Diego 1473, Parque O'Higgins, Santiago, RM (Metropolitana)",300.0,Gastos comunes aproximados $ 55.000,40 m² totales / 2 dormitorios / 1 baño,3,2023-05-17,Publicado hace 1 día por Assetplan Chile,Edificio San Diego Vista Norte Piso 3,https://www.portalinmobiliario.com/MLC-1385036413-edificio-san-diego-vista-norte-piso-3-_JM#position=28&search_layout=stack&type=item&tracking_id=687d63ea-a4c7-485d-95ec-dec6c0b3fd5e,-33.4474423,-70.6510645,Santiago
"Mario Kreutzberger 1520, Santiago, Chile, Centro Histórico de Santiago, Santiago, RM (Metropolitana)",265.0,,20 m² totales / 1 dormitorio / 1 baño,3,2023-05-17,Publicado hace 1 día,Rosas 1520 - Estudio Remodelado - Metro Santa Ana,https://www.portalinmobiliario.com/MLC-1675346408-rosas-1520-estudio-remodelado-metro-santa-ana-_JM#position=29&search_layout=stack&type=item&tracking_id=687d63ea-a4c7-485d-95ec-dec6c0b3fd5e,-33.435916788571426,-70.65894144571429,Santiago
"Mapocho, Santiago, Parque Los Reyes, Santiago, RM (Metropolitana)",290.0,Gastos comunes aproximados $ 65.000,33 m² totales / 1 dormitorio / 1 baño,3,2023-05-17,Publicado hace 1 día por Easyprop,Departamento En Arriendo En Santiago,https://www.portalinmobiliario.com/MLC-1384696239-departamento-en-arriendo-en-santiago-_JM#position=30&search_layout=stack&type=item&tracking_id=687d63ea-a4c7-485d-95ec-dec6c0b3fd5e,-33.4320663,-70.6630915,Santiago
"Sazié 1738, Ejército - Toesca, Santiago, RM (Metropolitana)",270.0,,30 m² totales / 1 dormitorio / 1 baño,3,2023-05-17,Publicado hace 1 día por Assetplan Chile,Edificio Sazié (1 Bod.) Vista Norte Piso 4,https://www.portalinmobiliario.com/MLC-1673838500-edificio-sazie-1-bod-vista-norte-piso-4-_JM#position=31&search_layout=stack&type=item&tracking_id=687d63ea-a4c7-485d-95ec-dec6c0b3fd5e,-33.449516200000005,-70.66022494843412,Santiago
"Martínez De Rozas 2375, Santiago, Chile, Parque Los Reyes, Santiago, RM (Metropolitana)",290.0,Gastos comunes aproximados $ 55.000,33 m² totales / 1 dormitorio / 1 baño,3,2023-05-17,Publicado hace 1 día,"Piso 5, Sin Comision, Hermoso Dpto En Arriendo",https://www.portalinmobiliario.com/MLC-1385065287-piso-5-sin-comision-hermoso-dpto-en-arriendo-_JM#position=32&search_layout=stack&type=item&tracking_id=687d63ea-a4c7-485d-95ec-dec6c0b3fd5e,-33.433800626086956,-70.67054728695652,Santiago
"San Pablo, Centro Histórico de Santiago, Santiago, RM (Metropolitana)",299.0,,33 m² totales / 1 dormitorio / 1 baño,3,2023-05-17,Publicado hace 1 día por Easyprop,Departamento En Arriendo De 1 Dormitorio En Santiago,https://www.portalinmobiliario.com/MLC-1385046023-departamento-en-arriendo-de-1-dormitorio-en-santiago-_JM#position=33&search_layout=stack&type=item&tracking_id=687d63ea-a4c7-485d-95ec-dec6c0b3fd5e,-33.4443055,-70.7231765,Santiago
"General Mackenna 1260, Centro Histórico de Santiago, Santiago, RM (Metropolitana)",280.0,,45 m² totales / 2 dormitorios / 1 baño,3,2023-05-17,Publicado hace 4 días por Capitalizarme Rent,Ref:13426**             Arriendo Depto 2 Dormitorios 1 Baño ,https://www.portalinmobiliario.com/MLC-1383972553-ref13426-arriendo-depto-2-dormitorios-1-bano-_JM#position=35&search_layout=stack&type=item&tracking_id=687d63ea-a4c7-485d-95ec-dec6c0b3fd5e,-33.43329097560976,-70.6553922609756,Santiago
"Tarapacá 1356, 8331162 Santiago, Región Metropolitana, Chile, Bulnes, Santiago, RM (Metropolitana)",300.0,Gastos comunes aproximados $ 55.000,32 m² totales / 1 dormitorio / 1 baño,3,2023-05-17,Publicado hace 2 días,Céntrico Departamento A Pasos De Metro La Moneda.,https://www.portalinmobiliario.com/MLC-1384393345-centrico-departamento-a-pasos-de-metro-la-moneda-_JM#position=36&search_layout=stack&type=item&tracking_id=687d63ea-a4c7-485d-95ec-dec6c0b3fd5e,-33.5311327,-70.4794493,Santiago
"Matucana 1161, Santiago, RM (Metropolitana)",280.0,Gastos comunes aproximados $ 40.000,34.1 m² totales / 1 dormitorio / 1 baño,3,2023-05-17,Publicado hace 4 días por Capitalizarme Rent,Ref:10698**           Matucana C/mapocho: Departamento  1 Do,https://www.portalinmobiliario.com/MLC-1383961941-ref10698-matucana-cmapocho-departamento-1-do-_JM#position=37&search_layout=stack&type=item&tracking_id=687d63ea-a4c7-485d-95ec-dec6c0b3fd5e,-33.4463373,-70.6793156,Santiago
"Matucana 31, Barrio Yungay, Santiago, RM (Metropolitana)",275.0,Gastos comunes aproximados $ 53.000,31.37 m² totales / 1 baño,2,2023-05-17,Publicado hace 1 día por Assetplan Chile,Edificio Matucana- Vista Poniente Piso 6,https://www.portalinmobiliario.com/MLC-1385138677-edificio-matucana-vista-poniente-piso-6-_JM#position=38&search_layout=stack&type=item&tracking_id=687d63ea-a4c7-485d-95ec-dec6c0b3fd5e,-33.4415775,-70.6797923,Santiago
"Matucana 31, Barrio Yungay, Santiago, RM (Metropolitana)",275.0,Gastos comunes aproximados $ 53.000,31.37 m² totales / 1 baño,2,2023-05-17,Publicado hace 1 día por Assetplan Chile,Edificio Matucana- Vista Poniente Piso 6,https://www.portalinmobiliario.com/MLC-1385151271-edificio-matucana-vista-poniente-piso-6-_JM#position=39&search_layout=stack&type=item&tracking_id=687d63ea-a4c7-485d-95ec-dec6c0b3fd5e,-33.4415775,-70.6797923,Santiago
"Matucana 31, Barrio Yungay, Santiago, RM (Metropolitana)",295.0,Gastos comunes aproximados $ 60.000,32.77 m² totales / 1 dormitorio / 1 baño,3,2023-05-17,Publicado hace 1 día por Assetplan Chile,Edificio Matucana Vista Norte Piso 3,https://www.portalinmobiliario.com/MLC-1673837964-edificio-matucana-vista-norte-piso-3-_JM#position=40&search_layout=stack&type=item&tracking_id=687d63ea-a4c7-485d-95ec-dec6c0b3fd5e,-33.4415775,-70.6797923,Santiago
"Av. Sta. Rosa 255, 8330251 Santiago, Región Metropolitana, Chile, Santa Isabel, Santiago, RM (Metropolitana)",300.0,,36 m² totales / 1 dormitorio / 1 baño,3,2023-05-17,Publicado hace 2 días,Se Arrienda Hermoso Depto. 1d1b En Santiago,https://www.portalinmobiliario.com/MLC-1670215524-se-arrienda-hermoso-depto-1d1b-en-santiago-_JM#position=41&search_layout=stack&type=item&tracking_id=687d63ea-a4c7-485d-95ec-dec6c0b3fd5e,-33.480402429824565,-70.73995335789475,Santiago
"Coquimbo 777, San Diego, Santiago, RM (Metropolitana)",270.0,Gastos comunes aproximados $ 30.000,26.48 m² totales / 1 dormitorio / 1 baño,3,2023-05-17,Publicado hace 6 días por Assetplan Chile,Edificio Coquimbo Vista Sur Piso 13,https://www.portalinmobiliario.com/MLC-1654285294-edificio-coquimbo-vista-sur-piso-13-_JM#position=43&search_layout=stack&type=item&tracking_id=687d63ea-a4c7-485d-95ec-dec6c0b3fd5e,-33.4532717,-70.630487,Santiago
"Eleuterio Ramírez , Arturo Prat, San Diego, Santiago, RM (Metropolitana)",300.0,Gastos comunes aproximados $ 60.000,35 m² totales / 1 dormitorio / 1 baño,3,2023-05-17,Publicado hace 2 días,Departamento En Arriendo De 1 Dorm. En Santiago,https://www.portalinmobiliario.com/MLC-1384409495-departamento-en-arriendo-de-1-dorm-en-santiago-_JM#position=44&search_layout=stack&type=item&tracking_id=687d63ea-a4c7-485d-95ec-dec6c0b3fd5e,-33.4503136,-70.6546145,Santiago
"Santiago Concha 1148, Santiago, Chile, Bogotá - Sierra Bella, Santiago, RM (Metropolitana)",295.0,Gastos comunes aproximados $ 50.000,32 m² totales / 1 dormitorio / 1 baño,3,2023-05-17,Publicado hace 5 días,Depto. Cercano A Metro Matta,https://www.portalinmobiliario.com/MLC-1383763117-depto-cercano-a-metro-matta-_JM#position=46&search_layout=stack&type=item&tracking_id=687d63ea-a4c7-485d-95ec-dec6c0b3fd5e,-33.4734297,-70.6364196,Santiago
"Metro Irarrázaval, Barrio Diez de Julio, Santiago, RM (Metropolitana)",300.0,Gastos comunes aproximados $ 65.000,34 m² totales / 1 dormitorio / 1 baño,3,2023-05-17,Publicado hace 2 días por Gestion&propiedad,Metro Irarrázaval,https://www.portalinmobiliario.com/MLC-1669966660-metro-irarrazaval-_JM#position=47&search_layout=stack&type=item&tracking_id=687d63ea-a4c7-485d-95ec-dec6c0b3fd5e,-33.4528654,-70.6282039,Santiago
